id;"user_id";"title";"author";"description";"public";"lat";"lng";"date";"confirmation_date"
1;"1";"Geometria dell'anima";"Mirco Marcacci";"";"1";"42.297";"12.5959";"1505469057000";"1510654178000"
2;"1";"Madonna con pistola";"Banksy";"";"1";"40.8517";"14.2587";"1505469283000";"1510654178000"
3;"1";"Zattera";"SWAN";"";"1";"45.1892";"7.88572";"1505469357000";"1510654178000"
4;"1";"Blind";"Millo";"";"1";"41.0984";"15.0014";"1505469410000";"1510654178000"
5;"1";"Men in the Smoke";"SeaCreative";"";"1";"45.8183";"8.825";"1505469483000";"1510654178000"
6;"1";"Love Seeker";"Millo";"";"1";"45.4608";"9.21142";"1505480037000";"1510654178000"
7;"1";"<Nessun titolo>";"Johannes Mundinger";"";"1";"52.4821";"13.3892";"1510654178000";"1510654178000"
8;"1";"Insomnia";"Millo";"";"1";"67.2839";"14.3809";"1510654178000";"1510654178000"
9;"1";"<Nessun titolo>";"1010";"";"1";"48.8191";"2.3718";"1510654178000";"1510654178000"
10;"1";"I Lost my Shoe when I Saw you";"Lonac";"";"1";"26.7131";"-80.0538";"1510654178000";"1510654178000"
11;"1";"<Nessun titolo>";"2501";"";"1";"45.5148";"9.36705";"1510654178000";"1510654178000"
12;"1";"<Nessun titolo>";"2Alas";"";"1";"28.0226";"-81.7311";"1510654178000";"1510654178000"
13;"1";"<Nessun titolo>";"2Alas";"";"1";"26.7121";"-80.054";"1510654178000";"1510654178000"
14;"1";"The city of the 4 cultures";"JAZ";"";"1";"42.0623";"-1.60344";"1510654178000";"1510654178000"
15;"1";"Incognito";"Above";"";"1";"-26.2065";"28.0665";"1510654178000";"1510654178000"
16;"1";"<Nessun titolo>";"Adnate";"";"1";"-35.8095";"145.453";"1510654178000";"1510654178000"
17;"1";"<Nessun titolo>";"Alexis Diaz";"";"1";"36.0625";"-94.1579";"1510654178000";"1510654178000"
18;"1";"Water";"Agostino Iacurci";"";"1";"50.5042";"30.4314";"1510654178000";"1510654178000"
19;"1";"My Neighbour Totoro";"Airborne Mark";"";"1";"51.539";"-0.142555";"1510654178000";"1510654178000"
20;"1";"<Nessun titolo>";"Alexandre Keto";"";"1";"51.4625";"-2.58717";"1510654178000";"1510654178000"
21;"1";"<Nessun titolo>";"Alexis Diaz and Borondo";"";"1";"18.4483";"-66.0663";"1510654178000";"1510654178000"
22;"1";"The Wings of the Butterfly";"Alexis Diaz";"";"1";"51.7748";"19.4657";"1510654178000";"1510654178000"
23;"1";"That Rain in The Evening";"Alex Senna";"";"1";"55.2312";"11.7642";"1510654178000";"1510654178000"
24;"1";"Six Stages of Banksia Baxteri";"Amok Island";"";"1";"-33.6581";"119.531";"1510654178000";"1510654178000"
25;"1";"Creeping and crawling";"Anet Ronen";"";"1";"29.7473";"-95.3594";"1510654178000";"1510654178000"
26;"1";"Just human";"AnimalitoLand";"";"1";"67.2824";"14.3781";"1510654178000";"1510654178000"
27;"1";"Equality";"Apolo Torres";"";"1";"41.2475";"13.5873";"1510654178000";"1510654178000"
28;"1";"Early White";"Artez and Nikola Mihajlovic";"";"1";"43.141";"20.5183";"1510654178000";"1510654178000"
29;"1";"Clones";"Aryz";"";"1";"42.3347";"-83.0309";"1510654178000";"1510654178000"
30;"1";"<Nessun titolo>";"AweR";"";"1";"43.5607";"27.8261";"1510654178000";"1510654178000"
31;"1";"<Nessun titolo>";"Zabou";"";"1";"51.5271";"-0.055496";"1510654178000";"1510654178000"
32;"1";"Dismaland";"Banksy";"";"1";"51.3409";"-2.97991";"1510654178000";"1510654178000"
33;"1";"<Nessun titolo>";"Banksy";"";"1";"50.9648";"1.8394";"1510654178000";"1510654178000"
34;"1";"Europe";"BEZT";"";"1";"49.4904";"8.46239";"1510654178000";"1510654178000"
35;"1";"Meanwhile";"Bifido";"";"1";"51.5494";"0.070643";"1510654178000";"1510654178000"
36;"1";"<Nessun titolo>";"BIK ISMO";"";"1";"36.1689";"-115.137";"1510654178000";"1510654178000"
37;"1";"<Nessun titolo>";"BIK ISMO";"";"1";"25.8039";"-80.2018";"1510654178000";"1510654178000"
38;"1";"Big fish in a small pond";"Bisser";"";"1";"51.0483";"3.74223";"1510654178000";"1510654178000"
39;"1";"<Nessun titolo>";"BLU";"";"1";"40.8542";"14.2481";"1510654178000";"1510654178000"
40;"1";"<Nessun titolo>";"BLU";"";"1";"41.928";"12.5666";"1510654178000";"1510654178000"
41;"1";"<Nessun titolo>";"Bordalo II";"";"1";"44.8491";"-0.560885";"1510654178000";"1510654178000"
42;"1";"<Nessun titolo>";"Borondo";"";"1";"52.4986";"13.3595";"1510654178000";"1510654178000"
43;"1";"<Nessun titolo>";"Bosoletti";"";"1";"-34.9645";"-54.9512";"1510654178000";"1510654178000"
44;"1";"<Nessun titolo>";"Brusk";"";"1";"-22.8966";"-43.1869";"1510654178000";"1510654178000"
45;"1";"Streetoceros";"Brusk";"";"1";"45.4335";"4.3931";"1510654178000";"1510654178000"
46;"1";"<Nessun titolo>";"C215";"";"1";"40.4225";"-3.70485";"1510654178000";"1510654178000"
47;"1";"<Nessun titolo>";"Caratoes";"";"1";"51.5364";"-0.07417";"1510654178000";"1510654178000"
48;"1";"Rest";"Case MaClaim";"";"1";"26.7166";"-80.051";"1510654178000";"1510654178000"
49;"1";"Cruel face of international terrorism";"Case MaClaim";"";"1";"41.0154";"28.9332";"1510654178000";"1510654178000"
50;"1";"<Nessun titolo>";"Case MaClaim";"";"1";"40.7008";"-73.9188";"1510654178000";"1510654178000"
51;"1";"<Nessun titolo>";"Case MaClaim";"";"1";"53.4855";"-2.23336";"1510654178000";"1510654178000"
52;"1";"<Nessun titolo>";"Cbloxx & AYLO of Nomad Clan";"";"1";"53.4096";"-2.98978";"1510654178000";"1510654178000"
53;"1";"<Nessun titolo>";"Christina Angelina";"";"1";"54.6042";"-5.93089";"1510654178000";"1510654178000"
54;"1";"<Nessun titolo>";"Conor Harrington";"";"1";"51.583";"-0.016995";"1510654178000";"1510654178000"
55;"1";"Study of Integration";"Corn79";"";"1";"45.9154";"11.0322";"1510654178000";"1510654178000"
56;"1";".PRIMA.";"Daniel Eime";"";"1";"40.6699";"-7.89554";"1510654178000";"1510654178000"
57;"1";"<Nessun titolo>";"Daniel Padure";"";"1";"37.108";"-8.67215";"1510654178000";"1510654178000"
58;"1";"<Nessun titolo>";"DANK";"";"1";"51.5613";"-0.136824";"1510654178000";"1510654178000"
59;"1";"The Light Guard";"DANK";"";"1";"45.497";"9.22438";"1510654178000";"1510654178000"
60;"1";"<Nessun titolo>";"David MEGGS Hooke";"";"1";"34.0431";"-118.234";"1510654178000";"1510654178000"
61;"1";"<Nessun titolo>";"David Walker";"";"1";"50.7234";"1.60282";"1510654178000";"1510654178000"
62;"1";"<Nessun titolo>";"Deih";"";"1";"67.133";"16.0766";"1510654178000";"1510654178000"
63;"1";"We humans only can watch at cosmos face trapped by our own limit’s perception";"Deih";"";"0";"50.9698";"4.68626";"1510654178000";"1510654178000"
64;"1";"Toy Town - Ginger Doll";"Dotmasters";"";"1";"51.372";"-0.100436";"1510654178000";"1510654178000"
65;"1";"Reflexion // Respect";"Dourone";"";"1";"50.7257";"1.60787";"1510654178000";"1510654178000"
66;"1";"The last breeding pair";"Dulk";"";"1";"49.5324";"5.76111";"1510654178000";"1510654178000"
67;"1";"The Tortoise & Harriet";"Dulk";"";"1";"39.7594";"-104.985";"1510654178000";"1510654178000"
68;"1";"Catch the butterfly";"Dzia Krank";"";"1";"50.8898";"5.96967";"1510654178000";"1510654178000"
69;"1";"Golden Eagle";"Dzia Krank";"";"1";"67.2843";"14.3769";"1510654178000";"1510654178000"
70;"1";"Il fenicottero";"Dzia Krank";"";"1";"37.7201";"12.4909";"1510654178000";"1510654178000"
71;"1";"Save the Arctic";"Dzia Krank";"";"1";"51.207";"4.44903";"1510654178000";"1510654178000"
72;"1";"Tribute to Cecil the Lion";"Dzia Krank";"";"1";"55.8494";"-4.24988";"1510654178000";"1510654178000"
73;"1";"<Nessun titolo>";"Dzia Krank";"";"1";"50.9195";"4.41999";"1510654178000";"1510654178000"
74;"1";"Ziggy Stardust";"Eduardo Kobra";"";"1";"40.7345";"-74.0444";"1510654178000";"1510654178000"
75;"1";"Yorick’s skull";"Eduardo Kobra";"";"0";"26.7135";"-80.0508";"1510654178000";"1510654178000"
76;"1";"<Nessun titolo>";"Elementi Sotterranei";"";"1";"46.2814";"13.144";"1510654178000";"1510654178000"
77;"1";"<Nessun titolo>";"Ella & Pitr";"";"1";"40.6374";"15.1067";"1510654178000";"1510654178000"
78;"1";"The Silence of the Slippers After the Rain";"Ella & Pitr";"";"1";"41.8999";"-87.6843";"1510654178000";"1510654178000"
79;"1";"<Nessun titolo>";"Etam Cru";"";"1";"25.2077";"55.2682";"1510654178000";"1510654178000"
80;"1";"<Nessun titolo>";"Etam Cru";"";"1";"57.0478";"9.92469";"1510654178000";"1510654178000"
81;"1";"Homage to the Past and Future";"Eversiempre";"";"1";"51.2207";"2.90659";"1510654178000";"1510654178000"
82;"1";"Imperishable Relics";"Evoca1";"";"1";"48.1956";"16.3564";"1510654178000";"1510654178000"
83;"1";"For All Seasons";"Farid Rueda";"";"1";"51.4823";"11.9953";"1510654178000";"1510654178000"
84;"1";"Kokesh";"Fin DAC, Edo Rath & Nol Art";"";"1";"51.5673";"4.78852";"1510654178000";"1510654178000"
85;"1";"Taaniko";"Fin DAC";"";"1";"-37.6451";"176.188";"1510654178000";"1510654178000"
86;"1";"Moving the Pointless Monument";"Fintan Magee";"";"1";"50.9698";"4.686";"1510654178000";"1510654178000"
87;"1";"<Nessun titolo>";"Fintan Magee";"";"1";"58.9662";"5.76293";"1510654178000";"1510654178000"
88;"1";"The visionary";"Fintan Magee";"";"1";"50.5096";"30.5785";"1510654178000";"1510654178000"
89;"1";"The Day After";"Fintan Magee";"";"1";"-27.58";"151.955";"1510654178000";"1510654178000"
90;"1";"<Nessun titolo>";"Giulio Vespirini";"";"1";"41.0965";"15.0013";"1510654178000";"1510654178000"
91;"1";"<Nessun titolo>";"GLeo";"";"1";"46.1609";"-1.21471";"1510654178000";"1510654178000"
92;"1";"Risveglio";"Gola Hundun";"";"1";"38.9142";"16.5701";"1510654178000";"1510654178000"
93;"1";"<Nessun titolo>";"Greg Gossel";"";"1";"44.9761";"-93.2778";"1510654178000";"1510654178000"
94;"1";"CAT and MOUF";"Greg Mike";"";"1";"42.3442";"-83.0386";"1510654178000";"1510654178000"
95;"1";"<Nessun titolo>";"Gris1";"";"1";"43.5772";"1.47855";"1510654178000";"1510654178000"
96;"1";"<Nessun titolo>";"Guido van Helten";"";"1";"51.2315";"2.93735";"1510654178000";"1510654178000"
97;"1";"<Nessun titolo>";"Guido van Helten";"";"1";"53.8886";"27.542";"1510654178000";"1510654178000"
98;"1";"<Nessun titolo>";"Guido Van Helten";"";"1";"53.4844";"18.7511";"1510654178000";"1510654178000"
99;"1";"Homeless";"Herakut";"";"1";"48.868";"2.41245";"1510654178000";"1510654178000"
100;"1";"<Nessun titolo>";"Hilda Palafox";"";"1";"20.6281";"-87.0765";"1510654178000";"1510654178000"
101;"1";"<Nessun titolo>";"Hopare";"";"1";"44.8556";"-0.566975";"1510654178000";"1510654178000"
102;"1";"<Nessun titolo>";"Hopare";"";"1";"37.3258";"126.814";"1510654178000";"1510654178000"
103;"1";"<Nessun titolo>";"Hopare";"";"1";"43.1004";"5.88893";"1510654178000";"1510654178000"
104;"1";"Balancing Act";"How & Nosm";"";"1";"42.3334";"-83.0465";"1510654178000";"1510654178000"
105;"1";"<Nessun titolo>";"Hyuro";"";"1";"41.1664";"15.2601";"1510654178000";"1510654178000"
106;"1";"Una donna libera";"Hyuro";"";"1";"36.9077";"14.7139";"1510654178000";"1510654178000"
107;"1";"<Nessun titolo>";"Innerfields";"";"1";"50.4942";"12.133";"1510654178000";"1510654178000"
108;"1";"Heaven and Hell on Earth";"INO";"";"1";"-3.72342";"-38.5355";"1510654178000";"1510654178000"
109;"1";"In Search of Sunrise";"INO";"";"1";"38.9823";"1.29945";"1510654178000";"1510654178000"
110;"1";"Man with No Name";"INO";"";"1";"53.8789";"27.5472";"1510654178000";"1510654178000"
111;"1";"<Nessun titolo>";"Irony";"";"1";"54.602";"-5.93121";"1510654178000";"1510654178000"
112;"1";"<Nessun titolo>";"Irony";"";"1";"51.4404";"-2.61021";"1510654178000";"1510654178000"
113;"1";"<Nessun titolo>";"Jace";"";"1";"48.8267";"2.35222";"1510654178000";"1510654178000"
114;"1";"Rise";"James Bullough";"";"1";"50.4117";"30.5247";"1510654178000";"1510654178000"
115;"1";"<Nessun titolo>";"Jayn";"";"1";"53.2292";"10.4015";"1510654178000";"1510654178000"
116;"1";"<Nessun titolo>";"Jayn";"";"1";"53.2334";"10.3831";"1510654178000";"1510654178000"
117;"1";"The LaBrea Owl";"Jeff Soto";"";"1";"34.0736";"-118.344";"1510654178000";"1510654178000"
118;"1";"<Nessun titolo>";"Jeroo";"";"1";"45.0539";"5.05872";"1510654178000";"1510654178000"
119;"1";"<Nessun titolo>";"Jimmy C";"";"1";"51.5241";"-0.070535";"1510654178000";"1510654178000"
120;"1";"<Nessun titolo>";"JR";"";"1";"40.7182";"-74.0023";"1510654178000";"1510654178000"
121;"1";"<Nessun titolo>";"Julia Volchkova";"";"1";"5.35154";"100.243";"1510654178000";"1510654178000"
122;"1";"<Nessun titolo>";"SETH Globepainter";"";"1";"30.8883";"121.01";"1510654178000";"1510654178000"
123;"1";"<Nessun titolo>";"L7M";"";"1";"40.6228";"-74.0823";"1510654178000";"1510654178000"
124;"1";"<Nessun titolo>";"Lee Jeffries";"";"1";"48.8305";"2.37906";"1510654178000";"1510654178000"
125;"1";"Nausée";"Levalet";"";"0";"48.8677";"2.35562";"1510654178000";"1510654178000"
126;"1";"Rescue";"Levalet";"";"1";"48.5805";"7.74697";"1510654178000";"1510654178000"
127;"1";"Rise and Fall";"Li-Hill";"";"1";"52.4986";"13.3595";"1510654178000";"1510654178000"
128;"1";"The Impact of Discovery";"Li-Hill";"";"1";"50.4489";"30.4573";"1510654178000";"1510654178000"
129;"1";"Nitpicking";"Lonac";"";"1";"45.3313";"14.4526";"1510654178000";"1510654178000"
130;"1";"<Nessun titolo>";"Low Bros";"";"1";"50.9703";"4.68045";"1510654178000";"1510654178000"
131;"1";"<Nessun titolo>";"Ludo";"";"1";"48.874";"2.3596";"1510654178000";"1510654178000"
132;"1";"Flower Launcher";"Ludo";"";"1";"48.8641";"2.39327";"1510654178000";"1510654178000"
133;"1";"<Nessun titolo>";"MadC";"";"1";"31.6329";"-7.98945";"1510654178000";"1510654178000"
134;"1";"<Nessun titolo>";"MadC";"";"1";"48.7823";"2.40495";"1510654178000";"1510654178000"
135;"1";"<Nessun titolo>";"Mademoiselle Maurice";"";"1";"48.8179";"2.35799";"1510654178000";"1510654178000"
136;"1";"Birds";"Man o Matic";"";"1";"37.2552";"-6.95593";"1510654178000";"1510654178000"
137;"1";"Crumbling As we Climb";"Aaron Li-Hill";"";"1";"33.7752";"-118.187";"1510654178000";"1510654178000"
138;"1";"<Nessun titolo>";"Martin Ron";"";"1";"-34.6266";"-58.4082";"1510654178000";"1510654178000"
139;"1";"<Nessun titolo>";"Martin Whatson";"";"1";"58.9692";"5.76119";"1510654178000";"1510654178000"
140;"1";"Behind the Curtain";"Martin Whatson";"";"1";"25.802";"-80.2288";"1510654178000";"1510654178000"
141;"1";"Never give up";"Millo";"";"1";"-33.4403";"-70.6462";"1510654178000";"1510654178000"
142;"1";"<Nessun titolo>";"Millo";"";"1";"50.9227";"5.94947";"1510654178000";"1510654178000"
143;"1";"Suvannamaccha";"Millo";"";"1";"9.50305";"99.9058";"1510654178000";"1510654178000"
144;"1";"<Nessun titolo>";"Mr. Blob and Korvo";"";"1";"45.4376";"9.17107";"1510654178000";"1510654178000"
145;"1";"Keep on Listening Any Kind of Shape Talk with You";"Mr. THOMS";"";"1";"58.376";"26.7783";"1510654178000";"1510654178000"
146;"1";"<Nessun titolo>";"Mr.WOODLAND";"";"1";"48.3162";"11.9046";"1510654178000";"1510654178000"
147;"1";"<Nessun titolo>";"Mr Cenz";"";"1";"52.475";"-1.87521";"1510654178000";"1510654178000"
148;"1";"<Nessun titolo>";"Mue Bon";"";"1";"13.7381";"100.53";"1510654178000";"1510654178000"
149;"1";"<Nessun titolo>";"Muretz";"";"1";"51.5633";"-0.095869";"1510654178000";"1510654178000"
150;"1";"Samurai Likeism";"Nafir";"";"1";"52.4986";"13.3595";"1510654178000";"1510654178000"
151;"1";"Inhuman barriers";"NeverCrew";"";"1";"53.4807";"-2.23174";"1510654178000";"1510654178000"
152;"1";"<Nessun titolo>";"NeverCrew";"";"1";"28.5328";"77.2789";"1510654178000";"1510654178000"
153;"1";"Calais Jungle";"Nomad Clan";"";"1";"53.4817";"-2.2458";"1510654178000";"1510654178000"
154;"1";"Final Fleet";"Nomad Clan";"";"1";"53.8153";"-3.04829";"1510654178000";"1510654178000"
155;"1";"Translucent Medusa";"Nychos";"";"1";"57.0502";"9.90914";"1510654178000";"1510654178000"
156;"1";"Exploding Ronald’s head";"Nychos";"";"0";"40.5749";"-73.9811";"1510654178000";"1510654178000"
157;"1";"<Nessun titolo>";"Nychos";"";"1";"50.9711";"4.68187";"1510654178000";"1510654178000"
158;"1";"We are the Gemeos";"Jorit Agoch";"";"1";"40.72";"-73.9903";"1510654178000";"1510654178000"
159;"1";"Soho Dog";"Okuda";"";"1";"40.7218";"-73.9978";"1510654178000";"1510654178000"
160;"1";"<Nessun titolo>";"Okuda San Miguel";"";"1";"32.2439";"-8.52195";"1510654178000";"1510654178000"
161;"1";"Sweetest Sin";"ONUR & Wes21";"";"1";"52.5";"13.4083";"1510654178000";"1510654178000"
162;"1";"Efêmero";"Os Gemeos";"";"0";"45.5188";"9.21813";"1510654178000";"1510654178000"
163;"1";"<Nessun titolo>";"Os Gemeos";"";"1";"40.7243";"-73.9879";"1510654178000";"1510654178000"
164;"1";"<Nessun titolo>";"Adnate";"";"1";"51.5317";"-0.057538";"1510654178000";"1510654178000"
165;"1";"<Nessun titolo>";"Pablito Zago";"";"1";"43.942";"4.80569";"1510654178000";"1510654178000"
166;"1";"<Nessun titolo>";"Pablito Zago";"";"1";"43.953";"4.82058";"1510654178000";"1510654178000"
167;"1";"<Nessun titolo>";"Pantónio";"";"0";"50.4583";"30.4021";"1510654178000";"1510654178000"
168;"1";"Nelu";"Pastel";"";"1";"59.9243";"10.7983";"1510654178000";"1510654178000"
169;"1";"<Nessun titolo>";"Pastel";"";"1";"-34.5863";"-58.3736";"1510654178000";"1510654178000"
170;"1";"Camouflage (Tribute to René Magritte)";"Pejac";"";"0";"45.3337";"14.4562";"1510654178000";"1510654178000"
171;"1";"Mother’s Artists";"Pejac";"";"0";"31.9054";"36.5809";"1510654178000";"1510654178000"
172;"1";"Rotation";"Pejac";"";"1";"31.9612";"35.9129";"1510654178000";"1510654178000"
173;"1";"<Nessun titolo>";"Phlegm";"";"1";"52.4768";"-1.885";"1510654178000";"1510654178000"
174;"1";"Time To Scream And Shout";"Phlegm and Mum";"";"1";"64.1495";"-21.9468";"1510654178000";"1510654178000"
175;"1";"<Nessun titolo>";"Phlegm";"";"1";"30.3289";"-81.6593";"1510654178000";"1510654178000"
176;"1";"<Nessun titolo>";"Pixel Pancho";"";"1";"40.7048";"-73.9235";"1510654178000";"1510654178000"
177;"1";"One Wall";"Pixel Pancho";"";"1";"52.576";"13.2713";"1510654178000";"1510654178000"
178;"1";"Reminiscence";"Remed";"";"1";"34.0513";"-118.241";"1510654178000";"1510654178000"
179;"1";"<Nessun titolo>";"Remi Rough";"";"1";"31.634";"-8.01091";"1510654178000";"1510654178000"
180;"1";"<Nessun titolo>";"Rocket01";"";"1";"53.4844";"-2.21446";"1510654178000";"1510654178000"
181;"1";"<Nessun titolo>";"RONE";"";"1";"36.1444";"-86.7155";"1510654178000";"1510654178000"
182;"1";"Emma of Göteburg";"Rone";"";"0";"57.6543";"11.9122";"1510654178000";"1510654178000"
183;"1";"Sailor Story";"Rustam QBic";"";"1";"33.6793";"-116.175";"1510654178000";"1510654178000"
184;"1";"<Nessun titolo>";"Sabek";"";"1";"67.2832";"14.3822";"1510654178000";"1510654178000"
185;"1";"American Women";"Said Dokins";"";"1";"33.6793";"-116.175";"1510654178000";"1510654178000"
186;"1";"<Nessun titolo>";"Sainer";"";"1";"49.5022";"8.47054";"1510654178000";"1510654178000"
187;"1";"Philos & Adelphos";"Saner";"";"1";"39.9624";"-75.1344";"1510654178000";"1510654178000"
188;"1";"<Nessun titolo>";"Sasha Korban";"";"1";"50.5261";"30.5169";"1510654178000";"1510654178000"
189;"1";"Huli";"Hula";"";"1";"-37.644";"176.188";"1510654178000";"1510654178000"
190;"1";"<Nessun titolo>";"Sean Yoro aka Hula";"";"1";"26.7059";"-80.0467";"1510654178000";"1510654178000"
191;"1";"<Nessun titolo>";"Sebas Velasco and Xabier XTRM";"";"1";"43.0747";"-2.20569";"1510654178000";"1510654178000"
192;"1";"<Nessun titolo>";"Sebas Velasco";"";"1";"51.2214";"24.7334";"1510654178000";"1510654178000"
193;"1";"Blue in green";"Sepe and Chazme";"";"1";"47.447";"19.1694";"1510654178000";"1510654178000"
194;"1";"Dream Big";"Seth";"";"1";"39.9841";"116.496";"1510654178000";"1510654178000"
195;"1";"Antipodes";"Seth Globepainter";"";"1";"-43.5408";"172.654";"1510654178000";"1510654178000"
196;"1";"<Nessun titolo>";"Seth";"";"1";"-8.66213";"115.135";"1510654178000";"1510654178000"
197;"1";"My Mountain";"Seth";"";"1";"22.9847";"114.02";"1510654178000";"1510654178000"
198;"1";"<Nessun titolo>";"SHOK-1";"";"1";"51.522";"-0.068788";"1510654178000";"1510654178000"
199;"1";"<Nessun titolo>";"SmugOne";"";"1";"52.2616";"-7.11333";"1510654178000";"1510654178000"
200;"1";"The artist and his muse";"Sokar Uno";"";"1";"53.55";"9.95986";"1510654178000";"1510654178000"
201;"1";"<Nessun titolo>";"Strøk";"";"0";"48.832";"2.34446";"1510654178000";"1510654178000"
202;"1";"<Nessun titolo>";"Suso33";"";"1";"43.2544";"-2.9285";"1510654178000";"1510654178000"
203;"1";"<Nessun titolo>";"TARM";"";"1";"-22.9114";"-43.2153";"1510654178000";"1510654178000"
204;"1";"To The Desert";"Tellas";"";"1";"-31.9978";"115.887";"1510654178000";"1510654178000"
205;"1";"Under the City";"Tellas";"";"1";"39.2292";"9.09741";"1510654178000";"1510654178000"
206;"1";"Fog";"Tellas";"";"1";"53.3797";"-1.47667";"1510654178000";"1510654178000"
207;"1";"<Nessun titolo>";"Tellas";"";"1";"51.5236";"-0.078481";"1510654178000";"1510654178000"
208;"1";"Ma?ana, 100 toni";"Alberonero";"";"1";"39.4813";"-0.3505";"1510654178000";"1510654178000"
209;"1";"Two Of One Kind";"Telmo Miel and Pariz One";"";"1";"38.7695";"-9.18972";"1510654178000";"1510654178000"
210;"1";"Half Way There";"Telmo Miel";"";"1";"43.3004";"13.7148";"1510654178000";"1510654178000"
211;"1";"When I Grow Up";"Telmo Miel";"";"1";"59.7381";"10.2047";"1510654178000";"1510654178000"
212;"1";"<Nessun titolo>";"The Weird";"";"1";"49.1096";"18.2317";"1510654178000";"1510654178000"
213;"1";"<Nessun titolo>";"Violant";"";"1";"40.199";"-8.39483";"1510654178000";"1510654178000"
214;"1";"What if I fall? But imagine, what if you fly?";"WD aka Wild Drawing";"";"1";"37.9769";"23.7904";"1510654178000";"1510654178000"
215;"1";"Knowledge speaks, wisdom listens";"WD aka Wild Drawing";"";"1";"37.9843";"23.7177";"1510654178000";"1510654178000"
216;"1";"<Nessun titolo>";"WD aka Wild Drawing";"";"1";"35.9017";"14.5127";"1510654178000";"1510654178000"
217;"1";"<Nessun titolo>";"WD aka Wild Drawing";"";"1";"37.9792";"23.7355";"1510654178000";"1510654178000"
218;"1";"Prosperity";"WD aka Wild Drawing";"";"1";"65.7369";"24.5635";"1510654178000";"1510654178000"
219;"1";"Wake me up when September ends";"WD aka Wild Drawing";"";"1";"60.1709";"25.0116";"1510654178000";"1510654178000"
220;"1";"<Nessun titolo>";"Wes21 & Onur";"";"1";"25.8027";"-80.2001";"1510654178000";"1510654178000"
221;"1";"<Nessun titolo>";"Wild Welva";"";"1";"37.2708";"-6.92408";"1510654178000";"1510654178000"
222;"1";"<Nessun titolo>";"YASH";"";"1";"59.311";"18.0624";"1510654178000";"1510654178000"
223;"1";"Where Trees Don’t Grow";"YASH";"";"0";"57.7265";"11.897";"1510654178000";"1510654178000"
224;"1";"Jack The Ripper";"Zabou";"";"1";"51.5159";"-0.075668";"1510654178000";"1510654178000"
225;"1";"Stone Quarry";"Zest";"";"1";"47.1533";"4.88692";"1510654178000";"1510654178000"
226;"35";"my Under";"Tellas";"";"1";"31.6145";"-0.4182";"1551192993000";"1551193075000"
227;"78";"Sailor Rest";"2501";"";"1";"-43.891";"170.9024";"1551192993000";"1551193210000"
228;"22";"Search Just";"Fin DAC";"";"1";"36.6078";"116.9967";"1551192993000";"1551193075000"
229;"2";"Equality Birds";"Corn79";"";"1";"-28.1903";"-58.419";"1551192993000";"1551193036000"
230;"43";"Emma Huli";"Johannes Mundinger";"";"1";"50.245";"96.7167";"1551192993000";"1551193085000"
231;"100";"Incognito Antipodes";"Daniel Eime";"";"1";"48.6955";"-96.6349";"1551192993000";"1551193328000"
232;"58";"Fog the";"Julia Volchkova";"";"1";"45.4509";"106.1802";"1551192993000";"1551193287000"
233;"1";"Big Sweetest";"Guido van Helten";"";"1";"50.4259";"103.3567";"1551192993000";"1551193098000"
234;"80";"Inhuman American";"Mr. Blob and Korvo";"";"1";"46.3166";"-80.0113";"1551192993000";"1551193164000"
235;"95";"Just Risveglio";"Nomad Clan";"";"1";"32.8884";"130.2803";"1551192993000";"1551193415000"
236;"67";"Madonna Zattera";"Dulk";"";"1";"52.8482";"-108.5455";"1551192993000";"1551193308000"
237;"65";"green Grow";"Os Gemeos";"";"1";"19.2674";"94.307";"1551192993000";"1551193447000"
238;"57";"Earth Smoke";"Daniel Eime";"";"1";"52.2338";"25.4915";"1551192993000";"1551193449000"
239;"25";"Pointless Blind";"Li-Hill";"";"1";"27.2893";"9.004";"1551192993000";"1551193158000"
240;"52";"Birds human";"Irony";"";"1";"30.3962";"-86.3267";"1551192993000";"1551193030000"
241;"33";"of Impact";"Pixel Pancho";"";"1";"-30.7699";"152.5361";"1551192993000";"1551193079000"
242;"7";"Blind human";"Sokar Uno";"";"1";"-25.1815";"24.1384";"1551192993000";"1551193406000"
243;"66";"in The";"Sepe and Chazme";"";"1";"24.2172";"104.7751";"1551192993000";"1551193044000"
244;"61";"Huli up";"Dulk";"";"1";"46.2266";"94.712";"1551192993000";"1551193042000"
245;"48";"Final Wake";"BLU";"";"1";"7.8323";"-70.2182";"1551192993000";"1551193225000"
246;"40";"Imperishable of";"Christina Angelina";"";"1";"0.0359";"11.6785";"1551192993000";"1551193267000"
247;"69";"Insomnia Neighbour";"BIK ISMO";"";"1";"36.6244";"78.6556";"1551192993000";"1551193488000"
248;"92";"Streetoceros Act";"Rone";"";"1";"11.7958";"-8.2527";"1551192993000";"1551193277000"
249;"54";"Translucent Reminiscence";"RONE";"";"1";"17.3793";"-88.6144";"1551192993000";"1551193262000"
250;"99";"I Sailor";"Jimmy C";"";"1";"54.4181";"-74.0451";"1551192993000";"1551193102000"
251;"44";"White crawling";"Jeff Soto";"";"1";"-11.4372";"24.9368";"1551192993000";"1551193400000"
252;"42";"No Huli";"Sebas Velasco and Xabier XTRM";"";"1";"42.4499";"112.4627";"1551192993000";"1551193260000"
253;"76";"the Story";"Hopare";"";"1";"17.8892";"-4.6124";"1551192993000";"1551193361000"
254;"49";"Jungle My";"Lee Jeffries";"";"1";"-10.5516";"28.9127";"1551192993000";"1551193429000"
255;"86";"Ma?ana, Sailor";"Rocket01";"";"1";"-34.425";"-62.4638";"1551192993000";"1551193157000"
256;"89";"Reminiscence Blind";"How & Nosm";"";"1";"50.6284";"-77.7018";"1551192993000";"1551193352000"
257;"54";"the Past";"ONUR & Wes21";"";"1";"6.9929";"44.1246";"1551192993000";"1551193198000"
258;"83";"I Rescue";"WD aka Wild Drawing";"";"1";"47.1236";"76.6972";"1551192993000";"1551193425000"
259;"59";"My Banksia";"Christina Angelina";"";"1";"-24.3517";"14.6521";"1551192993000";"1551193375000"
260;"92";"Shout CAT";"Alberonero";"";"1";"46.5966";"40.2249";"1551192993000";"1551193462000"
261;"58";"and Imperishable";"INO";"";"1";"51.6058";"87.5703";"1551192993000";"1551193366000"
262;"85";"Clones if";"Levalet";"";"1";"39.0645";"90.7234";"1551192993000";"1551193256000"
263;"45";"butterfly Seeker";"Remi Rough";"";"1";"39.2527";"73.8273";"1551192993000";"1551193077000"
264;"94";"Under Guard";"Mr.WOODLAND";"";"1";"42.0881";"-92.8891";"1551192993000";"1551193329000"
265;"100";"Behind Golden";"Apolo Torres";"";"1";"35.5889";"44.159";"1551192993000";"1551193018000"
266;"38";"Water Wall";"SeaCreative";"";"1";"6.2636";"-6.615";"1551192993000";"1551193361000"
267;"33";"Big I";"Case MaClaim";"";"1";"50.9052";"80.1617";"1551192993000";"1551193169000"
268;"60";"The My";"WD aka Wild Drawing";"";"1";"-27.0546";"16.0439";"1551192993000";"1551193261000"
269;"73";"Fog city";"Mr.WOODLAND";"";"1";"-21.9608";"-46.558";"1551192993000";"1551193277000"
270;"7";"and of";"Li-Hill";"";"1";"50.2424";"32.3507";"1551192993000";"1551193459000"
271;"59";"of if";"Wild Welva";"";"1";"-15.8662";"-66.235";"1551192993000";"1551193366000"
272;"22";"of Samurai";"C215";"";"1";"30.8511";"-108.1344";"1551192993000";"1551193095000"
273;"56";"That Blind";"Eduardo Kobra";"";"1";"32.4505";"96.2052";"1551192993000";"1551193342000"
274;"100";"4 Homeless";"Dzia Krank";"";"1";"-19.4319";"-47.7091";"1551192993000";"1551193154000"
275;"17";"Arctic Nelu";"Sebas Velasco and Xabier XTRM";"";"1";"40.3983";"-6.4482";"1551192993000";"1551193038000"
276;"97";"I Golden";"Mue Bon";"";"1";"41.1137";"21.1458";"1551192993000";"1551193388000"
277;"61";"the For";"SETH Globepainter";"";"1";"53.1469";"64.8409";"1551192993000";"1551193034000"
278;"62";"Efêmero the";"SeaCreative";"";"1";"48.5913";"-56.1439";"1551192993000";"1551193350000"
279;"97";"to barriers";"Dzia Krank";"";"1";"33.0525";"10.9757";"1551192993000";"1551193448000"
280;"8";"Efêmero Homage";"Gola Hundun";"";"1";"51.7366";"121.0596";"1551192993000";"1551193309000"
281;"80";"human Geometria";"BLU";"";"1";"4.4507";"32.3781";"1551192993000";"1551193406000"
282;"88";"Seeker Seasons";"Zabou";"";"1";"-34.806";"149.8804";"1551192993000";"1551193416000"
283;"93";"That Prosperity";"Millo";"";"1";"-28.4731";"134.3635";"1551192993000";"1551193089000"
284;"39";"and Soho";"WD aka Wild Drawing";"";"1";"-4.1312";"16.4404";"1551192993000";"1551193114000"
285;"79";"American skull";"Dzia Krank";"";"1";"8.1526";"5.9621";"1551192993000";"1551193161000"
286;"14";"the pistola";"Brusk";"";"1";"-31.6857";"127.6869";"1551192993000";"1551193031000"
287;"69";"of Meanwhile";"Artez and Nikola Mihajlovic";"";"1";"-32.0191";"-59.7827";"1551192993000";"1551193486000"
288;"36";"Yorick’s Monument";"Wild Welva";"";"1";"4.5704";"-54.1895";"1551192993000";"1551193414000"
289;"53";"Behind Hell";"Alexandre Keto";"";"1";"36.1001";"-76.4973";"1551192993000";"1551193334000"
290;"95";"The Dog";"Dotmasters";"";"1";"21.9922";"-2.89";"1551192993000";"1551193377000"
291;"15";"Equality Risveglio";"Dzia Krank";"";"1";"52.6574";"0.4525";"1551192993000";"1551193320000"
292;"50";"Just Sin";"Case MaClaim";"";"1";"28.6792";"12.5515";"1551192993000";"1551193462000"
293;"6";"Insomnia Prosperity";"Alexandre Keto";"";"1";"32.5971";"-101.3077";"1551192993000";"1551193296000"
294;"13";"of Name";"Cbloxx & AYLO of Nomad Clan";"";"1";"-20.439";"25.969";"1551192993000";"1551193146000"
295;"72";"Rotation Desert";"1010";"";"1";"36.5386";"46.7005";"1551192993000";"1551193442000"
296;"56";"Homeless Pointless";"Eduardo Kobra";"";"1";"44.0926";"114.4515";"1551192993000";"1551193404000"
297;"48";"if Efêmero";"Telmo Miel";"";"1";"-24.7994";"116.6427";"1551192993000";"1551193228000"
298;"14";"Suvannamaccha we";"Irony";"";"1";"37.7957";"-99.4881";"1551192993000";"1551193380000"
299;"86";"American Save";"Phlegm";"";"1";"7.7864";"47.1162";"1551192993000";"1551193191000"
300;"25";"All libera";"2501";"";"1";"23.7388";"13.9085";"1551192993000";"1551193203000"
301;"31";"Risveglio Search";"WD aka Wild Drawing";"";"1";"38.9388";"81.7866";"1551192993000";"1551193388000"
302;"51";"and Early";"INO";"";"1";"36.8832";"50.02";"1551192993000";"1551193423000"
303;"92";"Scream Jungle";"Eversiempre";"";"1";"-1.5629";"-45.7847";"1551192993000";"1551193455000"
304;"10";"Mother’s ends";"Millo";"";"1";"-35.7227";"145.0059";"1551192993000";"1551193308000"
305;"70";"Fog Final";"DANK";"";"1";"-2.1135";"13.4321";"1551192993000";"1551193384000"
306;"18";"Half Rise";"BIK ISMO";"";"1";"45.5899";"-99.4918";"1551192993000";"1551193154000"
307;"96";"Fog Imperishable";"Nafir";"";"1";"14.4546";"23.6785";"1551192993000";"1551193163000"
308;"48";"Zattera Antipodes";"2501";"";"1";"30.431";"21.5884";"1551192993000";"1551193085000"
309;"33";"when the";"Telmo Miel and Pariz One";"";"1";"-34.9093";"137.6453";"1551192993000";"1551193464000"
310;"79";"Ronald’s imagine,";"Dulk";"";"1";"3.156";"-57.2582";"1551192993000";"1551193175000"
311;"4";"Magritte) trapped";"Herakut";"";"1";"35.0333";"-90.2699";"1551192993000";"1551193065000"
312;"50";"You and";"Violant";"";"1";"-37.9153";"-64.7329";"1551192993000";"1551193441000"
313;"76";"and face";"Gris1";"";"1";"36.1975";"-87.5514";"1551192993000";"1551193166000"
314;"56";"Blind 4";"YASH";"";"1";"-28.3341";"150.1117";"1551192993000";"1551193128000"
315;"85";"Totoro Scream";"Dotmasters";"";"1";"28.5731";"24.1213";"1551192993000";"1551193293000"
316;"98";"To Moving";"Rustam QBic";"";"1";"40.4752";"-81.8821";"1551192993000";"1551193085000"
317;"43";"Search Reminiscence";"Pantónio";"";"1";"24.291";"18.0425";"1551192993000";"1551193278000"
318;"46";"Efêmero Under";"WD aka Wild Drawing";"";"1";"41.7091";"85.3662";"1551192993000";"1551193185000"
319;"14";"Rise Insomnia";"Anet Ronen";"";"1";"36.0544";"45.8056";"1551192993000";"1551193320000"
320;"2";"of of";"Millo";"";"1";"28.749";"56.221";"1551192993000";"1551193074000"
321;"50";"Insomnia visionary";"Julia Volchkova";"";"1";"43.5438";"62.423";"1551192993000";"1551193256000"
322;"59";"Emma Reminiscence";"Remi Rough";"";"1";"51.2291";"113.1096";"1551192993000";"1551193464000"
323;"72";"Geometria Discovery";"Pantónio";"";"1";"39.363";"57.2716";"1551192993000";"1551193136000"
324;"86";"Love Streetoceros";"Borondo";"";"1";"41.8417";"-94.9662";"1551192993000";"1551193093000"
325;"98";"artist Wings";"Etam Cru";"";"1";"33.9969";"-105.1665";"1551192993000";"1551193487000"
326;"45";"of Evening";"Millo";"";"1";"-16.6677";"-70.2087";"1551192993000";"1551193454000"
327;"59";"Suvannamaccha Arctic";"MadC";"";"1";"21.4119";"81.425";"1551192993000";"1551193447000"
328;"37";"Birds his";"Herakut";"";"1";"-0.7464";"101.5474";"1551192993000";"1551193105000"
329;"29";"me Knowledge";"Mr Cenz";"";"1";"42.5693";"-77.3818";"1551192993000";"1551193307000"
330;"10";"Efêmero Huli";"Sean Yoro aka Hula";"";"1";"48.813";"-77.7602";"1551192993000";"1551193299000"
331;"37";"& fly?";"Etam Cru";"";"1";"53.7831";"-124.7295";"1551192993000";"1551193422000"
332;"77";"Crumbling Dream";"Mr. THOMS";"";"1";"31.7032";"95.7104";"1551192993000";"1551193065000"
333;"80";"Of Big";"Conor Harrington";"";"1";"44.0253";"44.7187";"1551192993000";"1551193025000"
334;"87";"Insomnia on";"Ella & Pitr";"";"1";"-16.6518";"18.3139";"1551192993000";"1551193207000"
335;"86";"human Samurai";"YASH";"";"1";"48.174";"-83.257";"1551192993000";"1551193069000"
336;"2";"Soho Camouflage";"Pejac";"";"1";"-32.1551";"-54.8612";"1551192993000";"1551193340000"
337;"92";"face Women";"DANK";"";"1";"36.9713";"-5.26";"1551192993000";"1551193330000"
338;"85";"Rotation One";"Li-Hill";"";"1";"29.768";"110.3155";"1551192993000";"1551193267000"
339;"53";"of Reminiscence";"SETH Globepainter";"";"1";"19.2319";"-97.1316";"1551192993000";"1551193280000"
340;"18";"the dell'anima";"BIK ISMO";"";"1";"16.8401";"-8.6908";"1551192993000";"1551193252000"
341;"47";"his with";"Muretz";"";"1";"3.7158";"-66.6661";"1551192993000";"1551193201000"
342;"27";"Risveglio Flower";"Martin Whatson";"";"1";"46.1673";"21.1494";"1551192993000";"1551193425000"
343;"15";"The Antipodes";"Wes21 & Onur";"";"1";"-6.7523";"22.3957";"1551192993000";"1551193040000"
344;"57";"After The";"YASH";"";"1";"22.5841";"89.597";"1551192993000";"1551193263000"
345;"20";"100 Rescue";"Zest";"";"1";"44.3369";"115.9687";"1551192993000";"1551193140000"
346;"8";"Equality Fog";"Nychos";"";"1";"40.6786";"90.4104";"1551192993000";"1551193263000"
347;"55";"Baxteri //";"Telmo Miel and Pariz One";"";"1";"35.9769";"0.892";"1551192993000";"1551193215000"
348;"77";"The last";"Guido Van Helten";"";"1";"-28.0346";"31.9566";"1551192993000";"1551193322000"
349;"74";"4 Kokesh";"Pejac";"";"1";"44.955";"101.5848";"1551192993000";"1551193239000"
350;"15";"Taaniko Integration";"Hyuro";"";"1";"-14.2777";"19.8527";"1551192993000";"1551193344000"
351;"40";"Jungle on";"Borondo";"";"1";"-22.1395";"146.135";"1551192993000";"1551193229000"
352;"32";"Rise Launcher";"Johannes Mundinger";"";"1";"9.8309";"-6.0149";"1551192993000";"1551193423000"
353;"98";"you Story";"Adnate";"";"1";"6.7521";"-63.4492";"1551192993000";"1551193376000"
354;"1";"when speaks,";"Jayn";"";"1";"39.2889";"29.5502";"1551192993000";"1551193454000"
355;"7";"the Calais";"YASH";"";"1";"18.1458";"-15.8349";"1551192993000";"1551193411000"
356;"67";"fenicottero Pointless";"Hopare";"";"1";"25.153";"-107.8296";"1551192993000";"1551193363000"
357;"44";"Taaniko Respect";"Wild Welva";"";"1";"19.9587";"78.1387";"1551192993000";"1551193301000"
358;"14";"Never libera";"Violant";"";"1";"20.4566";"-13.0945";"1551192993000";"1551193478000"
359;"59";"Flower Kokesh";"Jayn";"";"1";"-37.3895";"141.0876";"1551192993000";"1551193449000"
360;"97";"Under Love";"Nomad Clan";"";"1";"42.9514";"-75.9457";"1551192993000";"1551193368000"
361;"46";"Six Balancing";"Etam Cru";"";"1";"34.5238";"-102.3305";"1551192993000";"1551193179000"
362;"22";"Birds Medusa";"Pejac";"";"1";"30.7676";"-90.2885";"1551192993000";"1551193295000"
363;"5";"Toy Incognito";"Anet Ronen";"";"1";"-12.1954";"21.5636";"1551192993000";"1551193250000"
364;"15";"All Scream";"Adnate";"";"1";"23.5677";"95.7808";"1551192993000";"1551193251000"
365;"90";"Water of";"Hyuro";"";"1";"-13.9848";"-57.9685";"1551192993000";"1551193107000"
366;"80";"Nelu Europe";"Banksy";"";"1";"-15.4391";"143.9035";"1551192993000";"1551193038000"
367;"42";"pistola The";"Mirco Marcacci";"";"1";"15.0254";"-16.8538";"1551192993000";"1551193245000"
368;"11";"Guard Pointless";"How & Nosm";"";"1";"29.5328";"90.4082";"1551192993000";"1551193018000"
369;"9";"up Stages";"Dotmasters";"";"1";"13.9008";"-0.9267";"1551192993000";"1551193211000"
370;"89";"Moving Medusa";"Bosoletti";"";"1";"14.2399";"8.977";"1551192993000";"1551193199000"
371;"6";"Zattera Moving";"Irony";"";"1";"40.9937";"27.5903";"1551192993000";"1551193324000"
372;"46";"Time And";"Ella & Pitr";"";"1";"13.9369";"104.4913";"1551192993000";"1551193186000"
373;"60";"Study the";"Fintan Magee";"";"1";"-31.4625";"-60.3737";"1551192993000";"1551193176000"
374;"9";"the Study";"Martin Whatson";"";"1";"29.2415";"-102.9855";"1551192993000";"1551193465000"
375;"29";"Rest Dismaland";"Dzia Krank";"";"1";"51.6441";"-60.8874";"1551192993000";"1551193395000"
376;"6";"with Kokesh";"Corn79";"";"1";"37.4209";"47.8303";"1551192993000";"1551193410000"
377;"51";"The Respect";"Elementi Sotterranei";"";"1";"-1.0752";"-68.3345";"1551192993000";"1551193206000"
378;"24";"Big barriers";"Case MaClaim";"";"1";"48.6406";"-1.2132";"1551192993000";"1551193034000"
379;"24";"The Rotation";"Dotmasters";"";"1";"47.9392";"70.04";"1551192993000";"1551193359000"
380;"81";"Harriet Big";"WD aka Wild Drawing";"";"1";"-26.549";"121.1125";"1551192993000";"1551193241000"
381;"62";"when fall?";"Sokar Uno";"";"1";"-6.0204";"140.1394";"1551192993000";"1551193254000"
382;"3";"The Suvannamaccha";"DANK";"";"1";"10.4338";"3.6069";"1551192993000";"1551193429000"
383;"4";"on Reminiscence";"Mue Bon";"";"1";"-17.143";"13.9517";"1551192993000";"1551193306000"
384;"32";"me Artists";"Ella & Pitr";"";"1";"-19.5614";"134.7429";"1551192993000";"1551193469000"
385;"50";"donna Blue";"Brusk";"";"1";"50.1345";"-98.0273";"1551192993000";"1551193071000"
386;"89";"Dog Incognito";"Giulio Vespirini";"";"1";"-37.3793";"148.9516";"1551192993000";"1551193096000"
387;"3";"head face";"Apolo Torres";"";"1";"33.0573";"77.5688";"1551192993000";"1551193289000"
388;"69";"Any Women";"Telmo Miel";"";"1";"-23.3206";"46.9879";"1551192993000";"1551193400000"
389;"89";"Rise Cruel";"Zest";"";"1";"40.5991";"19.9828";"1551192993000";"1551193422000"
390;"99";"international Light";"INO";"";"1";"-18.9273";"-48.2189";"1551192993000";"1551193351000"
391;"42";"Hell if";"MadC";"";"1";"47.8846";"15.9362";"1551192993000";"1551193108000"
392;"21";"Study 4";"Zabou";"";"1";"51.7032";"-108.6726";"1551192993000";"1551193060000"
393;"14";"The listens";"Nychos";"";"1";"5.9916";"6.3116";"1551192993000";"1551193476000"
394;"55";"Owl Climb";"WD aka Wild Drawing";"";"1";"13.44";"43.746";"1551192993000";"1551193018000"
395;"26";"Guard dell'anima";"Hopare";"";"1";"46.8396";"60.619";"1551192993000";"1551193043000"
396;"78";"Fleet Reminiscence";"Said Dokins";"";"1";"21.2291";"-102.0122";"1551192993000";"1551193185000"
397;"61";"Save Just";"Dzia Krank";"";"1";"-27.9764";"-65.3209";"1551192993000";"1551193210000"
398;"78";"the Homeless";"Tellas";"";"1";"39.8563";"8.5419";"1551192993000";"1551193278000"
399;"63";"Cruel Ziggy";"Julia Volchkova";"";"1";"42.2852";"-99.175";"1551192993000";"1551193295000"
400;"33";"we Birds";"JAZ";"";"1";"-8.4075";"120.8024";"1551192993000";"1551193487000"
401;"3";"give Knowledge";"Nychos";"";"1";"-5.493";"15.1085";"1551192993000";"1551193076000"
402;"45";"green Rotation";"Nychos";"";"1";"19.9774";"46.3532";"1551192993000";"1551193092000"
403;"91";"head Mountain";"Sean Yoro aka Hula";"";"1";"44.1131";"4.3387";"1551192993000";"1551193437000"
404;"81";"Clones Never";"Jeroo";"";"1";"35.0121";"79.319";"1551192993000";"1551193460000"
405;"72";"you Dismaland";"Jayn";"";"1";"15.8226";"39.0688";"1551192993000";"1551193218000"
406;"16";"The Search";"Rocket01";"";"1";"53.1494";"16.5246";"1551192993000";"1551193197000"
407;"74";"Search (Tribute";"Lonac";"";"1";"-24.6496";"136.3229";"1551192993000";"1551193063000"
408;"7";"Kokesh Rotation";"Adnate";"";"1";"34.7411";"-117.9349";"1551192993000";"1551193213000"
409;"30";"Magritte) face";"WD aka Wild Drawing";"";"1";"-26.8038";"-68.5199";"1551192993000";"1551193457000"
410;"73";"Risveglio the";"Guido Van Helten";"";"1";"1.978";"-74.1094";"1551192993000";"1551193046000"
411;"7";"Homeless Way";"WD aka Wild Drawing";"";"1";"-12.047";"23.5664";"1551192993000";"1551193158000"
412;"71";"Never Any";"Aaron Li-Hill";"";"1";"13.2706";"37.89";"1551192993000";"1551193218000"
413;"35";"Meanwhile the";"David MEGGS Hooke";"";"1";"-6.3065";"-38.379";"1551192993000";"1551193267000"
414;"57";"Dream Rotation";"Bifido";"";"1";"-34.0529";"21.1718";"1551192993000";"1551193306000"
415;"81";"4 My";"SETH Globepainter";"";"1";"-22.743";"-48.5927";"1551192993000";"1551193075000"
416;"19";"Ripper Nelu";"Sasha Korban";"";"1";"16.3253";"-98.0072";"1551192993000";"1551193157000"
417;"53";"Rotation Search";"Seth";"";"1";"20.2288";"-100.7483";"1551192993000";"1551193013000"
418;"68";"Saw Kind";"Pablito Zago";"";"1";"48.4321";"55.1626";"1551192993000";"1551193146000"
419;"75";"Ronald’s Jungle";"WD aka Wild Drawing";"";"1";"38.8503";"34.4599";"1551192993000";"1551193033000"
420;"20";"Day Dog";"Mademoiselle Maurice";"";"1";"53.5239";"12.7389";"1551192993000";"1551193134000"
421;"17";"Reflexion Town";"INO";"";"1";"20.2823";"-5.2932";"1551192993000";"1551193307000"
422;"30";"Big Huli";"Pixel Pancho";"";"1";"-26.7004";"22.1324";"1551192993000";"1551193408000"
423;"92";"Geometria Search";"Anet Ronen";"";"1";"51.801";"-8.3172";"1551192993000";"1551193200000"
424;"63";"MOUF Lost";"Zabou";"";"1";"-14.9432";"124.9875";"1551192993000";"1551193252000"
425;"35";"American Dream";"Pixel Pancho";"";"1";"9.0733";"126.1857";"1551192993000";"1551193182000"
426;"26";"and Final";"Airborne Mark";"";"1";"1.6347";"35.6258";"1551192993000";"1551193348000"
427;"86";"Magritte) Europe";"Guido Van Helten";"";"1";"47.0207";"-113.8203";"1551192993000";"1551193135000"
428;"93";"Integration Rest";"Lee Jeffries";"";"1";"27.7199";"71.4142";"1551192993000";"1551193359000"
429;"44";"Stages Balancing";"Daniel Eime";"";"1";"39.4226";"-116.1095";"1551192993000";"1551193023000"
430;"82";"Antipodes and";"Dzia Krank";"";"1";"-11.6377";"15.8909";"1551192993000";"1551193194000"
431;"32";"Study Homage";"Lee Jeffries";"";"1";"41.5846";"-8.5786";"1551192993000";"1551193106000"
432;"13";"Prosperity Quarry";"Man o Matic";"";"1";"48.4166";"-94.9169";"1551192993000";"1551193295000"
433;"25";"To visionary";"Case MaClaim";"";"1";"-24.83";"116.7407";"1551192993000";"1551193422000"
434;"86";"Doll Huli";"Seth Globepainter";"";"1";"51.0843";"7.7733";"1551192993000";"1551193363000"
435;"43";"The The";"Julia Volchkova";"";"1";"6.9816";"-64.1502";"1551192993000";"1551193390000"
436;"67";"Il Prosperity";"Levalet";"";"1";"11.5151";"125.5048";"1551192993000";"1551193135000"
437;"74";"Discovery cosmos";"DANK";"";"1";"30.1174";"-84.3994";"1551192993000";"1551193241000"
438;"92";"The Rescue";"Banksy";"";"1";"-27.4732";"115.7414";"1551192993000";"1551193230000"
439;"2";"Tortoise Risveglio";"Corn79";"";"1";"50.646";"-116.4574";"1551192993000";"1551193434000"
440;"52";"dell'anima Rise";"Guido Van Helten";"";"1";"-19.3758";"19.646";"1551192993000";"1551193472000"
441;"91";"// Emma";"Pablito Zago";"";"1";"40.7158";"109.2971";"1551192993000";"1551193046000"
442;"27";"dell'anima Early";"Levalet";"";"1";"34.1002";"55.7381";"1551192993000";"1551193229000"
443;"88";"the Ziggy";"Martin Whatson";"";"1";"-1.5492";"-66.567";"1551192993000";"1551193244000"
444;"45";"Rescue the";"Seth";"";"1";"-29.0663";"123.2171";"1551192993000";"1551193143000"
445;"9";"After and";"C215";"";"1";"26.9881";"94.0932";"1551192993000";"1551193472000"
446;"85";"Nausée Flower";"Dzia Krank";"";"1";"-9.392";"-47.9861";"1551192993000";"1551193361000"
447;"23";"I Prosperity";"Millo";"";"1";"-28.1719";"-60.0753";"1551192993000";"1551193403000"
448;"94";"Insomnia Likeism";"Dzia Krank";"";"1";"29.8282";"-101.7939";"1551192993000";"1551193476000"
449;"49";"Blind White";"SeaCreative";"";"1";"43.1079";"-116.3514";"1551192993000";"1551193351000"
450;"58";"Suvannamaccha Rise";"Remed";"";"1";"-26.8079";"144.1665";"1551192993000";"1551193040000"
451;"54";"Impact Cruel";"Dotmasters";"";"1";"16.6495";"12.3262";"1551192993000";"1551193442000"
452;"8";"You of";"MadC";"";"1";"-12.8151";"-44.9968";"1551192993000";"1551193282000"
453;"69";"Time Golden";"Os Gemeos";"";"1";"20.1921";"58.6593";"1551192993000";"1551193014000"
454;"97";"The of";"Millo";"";"1";"40.7808";"100.7505";"1551192993000";"1551193196000"
455;"35";"In Shout";"Sean Yoro aka Hula";"";"1";"47.3867";"-75.6269";"1551192993000";"1551193237000"
456;"72";"Reminiscence Wake";"Adnate";"";"1";"-11.0704";"20.6654";"1551192993000";"1551193279000"
457;"51";"Taaniko Jack";"Alex Senna";"";"1";"38.9363";"-101.1613";"1551192993000";"1551193426000"
458;"48";"Tortoise barriers";"Said Dokins";"";"1";"-26.0007";"144.4314";"1551192993000";"1551193130000"
459;"94";"Jungle Clones";"WD aka Wild Drawing";"";"1";"9.5374";"9.8121";"1551192993000";"1551193337000"
460;"72";"Insomnia on";"Lonac";"";"1";"33.3968";"1.5621";"1551192993000";"1551193379000"
461;"42";"Nelu Europe";"Sepe and Chazme";"";"1";"4.2774";"44.9504";"1551192993000";"1551193293000"
462;"65";"Meanwhile Imperishable";"SeaCreative";"";"1";"51.2096";"-108.4536";"1551192993000";"1551193238000"
463;"94";"Never his";"Case MaClaim";"";"1";"36.7711";"64.4561";"1551192993000";"1551193465000"
464;"4";"To you";"Hopare";"";"1";"45.2148";"70.2685";"1551192993000";"1551193454000"
465;"54";"pair Time";"Pablito Zago";"";"1";"48.2206";"100.8307";"1551192993000";"1551193466000"
466;"97";"and Future";"Sabek";"";"1";"36.4692";"52.3853";"1551192993000";"1551193159000"
467;"30";"crawling Dismaland";"2Alas";"";"1";"32.2022";"72.5944";"1551192993000";"1551193234000"
468;"43";"skull My";"Artez and Nikola Mihajlovic";"";"1";"23.1665";"32.2183";"1551192993000";"1551193017000"
469;"100";"Taaniko Search";"Seth Globepainter";"";"1";"11.0801";"18.0817";"1551192993000";"1551193350000"
470;"77";"Zattera Toy";"NeverCrew";"";"1";"-23.7552";"145.8361";"1551192993000";"1551193431000"
471;"52";"Respect I";"Said Dokins";"";"1";"38.6102";"44.4149";"1551192993000";"1551193041000"
472;"93";"Stone Clones";"Mr. THOMS";"";"1";"39.8404";"-104.1808";"1551192993000";"1551193307000"
473;"25";"Curtain Kind";"Apolo Torres";"";"1";"-37.3361";"149.7696";"1551192993000";"1551193153000"
474;"23";"Half Rise";"Greg Mike";"";"1";"23.9579";"54.9949";"1551192993000";"1551193187000"
475;"34";"Study green";"Julia Volchkova";"";"1";"24.4571";"113.379";"1551192993000";"1551193345000"
476;"4";"Heaven After";"David Walker";"";"1";"53.3881";"-74.0825";"1551192993000";"1551193401000"
477;"100";"Dream Of";"Aryz";"";"1";"40.8054";"-1.8537";"1551192993000";"1551193404000"
478;"65";"Artists Inhuman";"Dulk";"";"1";"26.7951";"-98.0597";"1551192993000";"1551193468000"
479;"25";"For crawling";"AweR";"";"1";"-37.7274";"178.4166";"1551192993000";"1551193302000"
480;"63";"Birds Mountain";"Strøk";"";"1";"48.9014";"94.6982";"1551192993000";"1551193369000"
481;"98";"Rotation Fleet";"SWAN";"";"1";"32.2484";"120.4961";"1551192993000";"1551193035000"
482;"85";"Suvannamaccha Göteburg";"Remi Rough";"";"1";"-20.4676";"128.5009";"1551192993000";"1551193205000"
483;"51";"Birds Two";"Farid Rueda";"";"1";"47.7924";"-72.0205";"1551192993000";"1551193206000"
484;"26";"Relics Fall";"Gola Hundun";"";"1";"40.322";"-78.5713";"1551192993000";"1551193033000"
485;"44";"Day Water";"David MEGGS Hooke";"";"1";"46.7224";"-78.8479";"1551192993000";"1551193236000"
486;"25";"with Evening";"BLU";"";"1";"33.6171";"130.2144";"1551192993000";"1551193122000"
487;"92";"Dog Taaniko";"JR";"";"1";"37.0803";"-84.922";"1551192993000";"1551193417000"
488;"25";"Past Save";"Okuda";"";"1";"13.0325";"27.866";"1551192993000";"1551193180000"
489;"66";"Just Water";"Sabek";"";"1";"-6.8317";"-58.9234";"1551192993000";"1551193029000"
490;"23";"Meanwhile Day";"Giulio Vespirini";"";"1";"54.9271";"131.2748";"1551192993000";"1551193322000"
491;"72";"Risveglio Sunrise";"Dzia Krank";"";"1";"-29.2316";"139.4622";"1551192994000";"1551193334000"
492;"59";"Crumbling Ziggy";"Telmo Miel";"";"1";"45.5689";"33.3913";"1551192994000";"1551193419000"
493;"91";"Wall and";"Dulk";"";"1";"27.4514";"-100.5762";"1551192994000";"1551193089000"
494;"32";"and The";"INO";"";"1";"17.5828";"73.1414";"1551192994000";"1551193245000"
495;"82";"Adelphos Fog";"Ludo";"";"1";"15.3137";"22.9332";"1551192994000";"1551193241000"
496;"77";"Homeless Il";"SeaCreative";"";"1";"33.6627";"44.6842";"1551192994000";"1551193202000"
497;"8";"Relics fly?";"Case MaClaim";"";"1";"-19.1357";"125.4987";"1551192994000";"1551193024000"
498;"91";"Rest Pointless";"The Weird";"";"1";"52.0702";"108.6074";"1551192994000";"1551193239000"
499;"22";"Launcher Final";"Jeroo";"";"1";"54.9873";"127.2057";"1551192994000";"1551193267000"
500;"12";"Water Lost";"JAZ";"";"1";"-32.1845";"-57.4483";"1551192994000";"1551193418000"
501;"4";"trapped Artists";"Millo";"";"1";"0.9906";"-72.77";"1551192994000";"1551193100000"
502;"93";"Doll Exploding";"Ella & Pitr";"";"1";"-7.4805";"156.5978";"1551192994000";"1551193433000"
503;"45";"city the";"Seth";"";"1";"-45.1484";"168.8992";"1551192994000";"1551193401000"
504;"90";"Fog Wall";"Gris1";"";"1";"-41.029";"-71.4118";"1551192994000";"1551193085000"
505;"57";"The Never";"Daniel Padure";"";"1";"48.5999";"-80.2489";"1551192994000";"1551193156000"
506;"30";"Yorick’s Artists";"GLeo";"";"1";"19.415";"56.5788";"1551192994000";"1551193114000"
507;"39";"head Knowledge";"Tellas";"";"1";"54.198";"-117.7862";"1551192994000";"1551193482000"
508;"3";"Story Fall";"Sean Yoro aka Hula";"";"1";"15.8058";"45.6678";"1551192994000";"1551193159000"
509;"47";"Grow Blind";"Borondo";"";"1";"33.5121";"-86.4868";"1551192994000";"1551193014000"
510;"50";"Taaniko with";"WD aka Wild Drawing";"";"1";"8.7087";"43.3025";"1551192994000";"1551193178000"
511;"9";"Love Light";"Brusk";"";"1";"33.8807";"90.921";"1551192994000";"1551193385000"
512;"23";"American crawling";"Sepe and Chazme";"";"1";"50.7333";"45.088";"1551192994000";"1551193476000"
513;"71";"Never Love";"Christina Angelina";"";"1";"23.8203";"-12.7207";"1551192994000";"1551193424000"
514;"15";"To Göteburg";"Hula";"";"1";"-51.1192";"-74.1085";"1551192994000";"1551193440000"
515;"95";"Study Geometria";"Sokar Uno";"";"1";"-6.6644";"-50.5143";"1551192994000";"1551193387000"
516;"14";"The donna";"Banksy";"";"1";"33.8404";"71.702";"1551192994000";"1551193075000"
517;"93";"The Inhuman";"Giulio Vespirini";"";"1";"54.5014";"-118.465";"1551192994000";"1551193196000"
518;"61";"Nelu Golden";"AnimalitoLand";"";"1";"-16.9169";"-61.6274";"1551192994000";"1551193273000"
519;"75";"One Seeker";"Millo";"";"1";"22.5651";"26.117";"1551192994000";"1551193353000"
520;"40";"Just Big";"Phlegm";"";"1";"5.1365";"40.2817";"1551192994000";"1551193062000"
521;"26";"My Way";"Muretz";"";"1";"-16.3718";"143.2894";"1551192994000";"1551193093000"
522;"92";"White his";"David Walker";"";"1";"47.2082";"96.6453";"1551192994000";"1551193261000"
523;"18";"Incognito Big";"Hula";"";"1";"-12.5992";"19.4966";"1551192994000";"1551193279000"
524;"2";"Water That";"David Walker";"";"1";"-15.9862";"34.6249";"1551192994000";"1551193063000"
525;"100";"Ginger our";"Daniel Padure";"";"1";"15.1352";"11.3656";"1551192994000";"1551193300000"
526;"1";"Dream There";"Okuda";"";"1";"47.3831";"59.9169";"1551192994000";"1551193117000"
527;"4";"Ripper //";"Said Dokins";"";"1";"34.645";"-106.1047";"1551192994000";"1551193383000"
528;"76";"Jungle Half";"WD aka Wild Drawing";"";"1";"-12.6709";"33.1752";"1551192994000";"1551193140000"
529;"95";"CAT international";"Aaron Li-Hill";"";"1";"21.5793";"-82.6534";"1551192994000";"1551193475000"
530;"18";"Early Blind";"GLeo";"";"1";"46.0966";"76.14";"1551192994000";"1551193297000"
531;"66";"humans There";"1010";"";"1";"49.1077";"-70.706";"1551192994000";"1551193018000"
532;"21";"Soho Crumbling";"Etam Cru";"";"1";"10.0541";"17.8793";"1551192994000";"1551193394000"
533;"17";"breeding libera";"Hilda Palafox";"";"1";"-6.8607";"-39.4146";"1551192994000";"1551193094000"
534;"29";"Medusa Search";"Guido Van Helten";"";"1";"28.7076";"37.2784";"1551192994000";"1551193015000"
535;"37";"Big Evening";"Seth Globepainter";"";"1";"34.6291";"-90.635";"1551192994000";"1551193246000"
536;"57";"Balancing Calais";"Greg Gossel";"";"1";"17.5145";"-1.1605";"1551192994000";"1551193379000"
537;"61";"Incognito Stardust";"Fintan Magee";"";"1";"3.4647";"-59.0208";"1551192994000";"1551193201000"
538;"9";"The Integration";"Sebas Velasco";"";"1";"40.2981";"-99.2327";"1551192994000";"1551193457000"
539;"86";"The .PRIMA.";"Aaron Li-Hill";"";"1";"-38.5654";"143.6052";"1551192994000";"1551193356000"
540;"79";"Guard Nitpicking";"The Weird";"";"1";"32.7815";"5.1209";"1551192994000";"1551193085000"
541;"85";"and with";"Remed";"";"1";"43.8866";"4.7755";"1551192994000";"1551193036000"
542;"90";"Insomnia The";"Agostino Iacurci";"";"1";"-9.1551";"-46.7846";"1551192994000";"1551193179000"
543;"78";"on Ripper";"Hula";"";"1";"43.5888";"-70.5915";"1551192994000";"1551193454000"
544;"10";"Efêmero Kind";"Mirco Marcacci";"";"1";"13.9028";"47.2925";"1551192994000";"1551193086000"
545;"63";"muse Inhuman";"Dzia Krank";"";"1";"54.3395";"-61.5709";"1551192994000";"1551193179000"
546;"60";"Huli LaBrea";"Amok Island";"";"1";"40.8442";"-83.0069";"1551192994000";"1551193388000"
547;"54";"4 Saw";"Pejac";"";"1";"6.5797";"38.5116";"1551192994000";"1551193402000"
548;"45";"pair Incognito";"Seth";"";"1";"14.1259";"-3.8638";"1551192994000";"1551193133000"
549;"96";"fall? &";"Os Gemeos";"";"1";"-32.4365";"-59.0082";"1551192994000";"1551193072000"
550;"36";"fenicottero skull";"Li-Hill";"";"1";"32.2696";"107.0152";"1551192994000";"1551193020000"
551;"27";"libera Heaven";"Case MaClaim";"";"1";"-3.9941";"-54.804";"1551192994000";"1551193018000"
552;"74";"Reminiscence ends";"Giulio Vespirini";"";"1";"11.3967";"11.8473";"1551192994000";"1551193260000"
553;"4";"of Water";"Daniel Eime";"";"1";"16.5693";"12.894";"1551192994000";"1551193130000"
554;"62";"Streetoceros Insomnia";"Telmo Miel";"";"1";"-50.4889";"-69.8675";"1551192994000";"1551193323000"
555;"69";"Golden Six";"NeverCrew";"";"1";"41.52";"109.8889";"1551192994000";"1551193412000"
556;"41";"Water Streetoceros";"Eversiempre";"";"1";"13.8162";"-87.7357";"1551192994000";"1551193127000"
557;"18";"Rest Streetoceros";"Millo";"";"1";"-16.5067";"-50.5982";"1551192994000";"1551193025000"
558;"75";"up Equality";"Elementi Sotterranei";"";"1";"-1.8818";"-76.5491";"1551192994000";"1551193307000"
559;"12";"Streetoceros Efêmero";"SETH Globepainter";"";"1";"6.9813";"-69.1611";"1551192994000";"1551193428000"
560;"2";"Butterfly Streetoceros";"Dzia Krank";"";"1";"-43.2106";"-39.3914";"1551192994000";"1551193131000"
561;"8";"Smoke Ripper";"How & Nosm";"";"1";"-5.0249";"-67.8267";"1551192994000";"1551193080000"
562;"38";"of Catch";"BLU";"";"1";"29.5997";"108.932";"1551192994000";"1551193024000"
563;"90";"Yorick’s of";"Jeroo";"";"1";"31.4725";"3.2761";"1551192994000";"1551193388000"
564;"23";"Relics Moving";"Brusk";"";"1";"12.2199";"8.1787";"1551192994000";"1551193394000"
565;"95";"Zattera Early";"Bosoletti";"";"1";"22.0296";"83.3417";"1551192994000";"1551193414000"
566;"97";"Story Climb";"Pantónio";"";"1";"41.5773";"-108.3138";"1551192994000";"1551193368000"
567;"37";"& the";"JR";"";"1";"-6.4971";"16.4958";"1551192994000";"1551193383000"
568;"89";"Insomnia Rest";"Mr.WOODLAND";"";"1";"-1.5137";"27.7274";"1551192994000";"1551193414000"
569;"32";"Women Big";"Mue Bon";"";"1";"13.3049";"31.2404";"1551192994000";"1551193195000"
570;"31";"Incognito Una";"Dzia Krank";"";"1";"19.5419";"46.0538";"1551192994000";"1551193270000"
571;"31";"Act The";"MadC";"";"1";"-6.1237";"32.7436";"1551192994000";"1551193227000"
572;"47";"Water Creeping";"Dzia Krank";"";"1";"-49.8965";"-74.7139";"1551192994000";"1551193395000"
573;"95";"Grow There";"Agostino Iacurci";"";"1";"49.3125";"69.2369";"1551192994000";"1551193183000"
574;"61";"Creeping speaks,";"Remi Rough";"";"1";"36.0222";"106.8666";"1551192994000";"1551193259000"
575;"7";"The Kokesh";"Anet Ronen";"";"1";"17.4006";"105.9662";"1551192994000";"1551193413000"
576;"14";"Efêmero Emma";"WD aka Wild Drawing";"";"1";"-4.1199";"-70.9961";"1551192994000";"1551193059000"
577;"11";"Curtain visionary";"Fintan Magee";"";"1";"-19.9553";"135.1615";"1551192994000";"1551193066000"
578;"94";"Trees speaks,";"Low Bros";"";"1";"53.629";"108.7529";"1551192994000";"1551193075000"
579;"64";"Artists visionary";"MadC";"";"1";"4.4652";"-64.4751";"1551192994000";"1551193355000"
580;"62";"Heaven 100";"Irony";"";"1";"8.2719";"-4.9108";"1551192994000";"1551193136000"
581;"2";"Risveglio &";"WD aka Wild Drawing";"";"1";"20.6466";"13.7568";"1551192994000";"1551193408000"
582;"70";"the Fog";"Jeff Soto";"";"1";"43.5223";"-111.7091";"1551192994000";"1551193422000"
583;"87";"Name Clones";"Seth";"";"1";"37.0928";"67.7262";"1551192994000";"1551193333000"
584;"88";"Antipodes Monument";"MadC";"";"1";"39.2595";"83.9652";"1551192994000";"1551193210000"
585;"14";"when Blind";"Julia Volchkova";"";"1";"52.6799";"-126.3033";"1551192994000";"1551193452000"
586;"30";"Balancing Stone";"AweR";"";"1";"-5.6132";"24.4212";"1551192994000";"1551193368000"
587;"56";"Dream skull";"David Walker";"";"1";"33.9915";"70.9836";"1551192994000";"1551193245000"
588;"95";"Half of";"Christina Angelina";"";"1";"-47.1453";"-67.0066";"1551192994000";"1551193316000"
589;"68";"Reminiscence the";"TARM";"";"1";"-7.0116";"-45.5526";"1551192994000";"1551193293000"
590;"9";"listens barriers";"Case MaClaim";"";"1";"28.2447";"93.3587";"1551192994000";"1551193273000"
591;"18";"Fleet Of";"Okuda";"";"1";"47.0233";"78.4103";"1551192994000";"1551193357000"
592;"74";"To Rescue";"Herakut";"";"1";"-21.7725";"128.8781";"1551192994000";"1551193068000"
593;"71";"Geometria But";"Irony";"";"1";"4.6664";"30.9977";"1551192994000";"1551193432000"
594;"64";"Rest René";"Jimmy C";"";"1";"18.541";"-13.5676";"1551192994000";"1551193134000"
595;"84";"Huli the";"Dzia Krank";"";"1";"-22.69";"16.5497";"1551192994000";"1551193376000"
596;"21";"Big Soho";"JR";"";"1";"18.1302";"46.594";"1551192994000";"1551193301000"
597;"76";"Discovery own";"Pastel";"";"1";"40.3822";"-76.8507";"1551192994000";"1551193039000"
598;"52";"Geometria Nausée";"WD aka Wild Drawing";"";"1";"35.5518";"84.9868";"1551192994000";"1551193244000"
599;"75";"face the";"Conor Harrington";"";"1";"39.8244";"45.1385";"1551192994000";"1551193308000"
600;"94";"Kokesh listens";"Os Gemeos";"";"1";"2.6315";"22.7453";"1551192994000";"1551193146000"
601;"48";"Imperishable Cecil";"Etam Cru";"";"1";"35.3576";"132.7186";"1551192994000";"1551193106000"
602;"38";"Suvannamaccha Trees";"Tellas";"";"1";"-24.4524";"16.8721";"1551192994000";"1551193085000"
603;"54";"Monument wisdom";"Pejac";"";"1";"18.7567";"97.0448";"1551192994000";"1551193202000"
604;"54";"The Search";"Sepe and Chazme";"";"1";"44.2434";"92.9772";"1551192994000";"1551193312000"
605;"17";"Streetoceros are";"Remed";"";"1";"7.1098";"21.6999";"1551192994000";"1551193161000"
606;"46";"Totoro //";"Alexis Diaz and Borondo";"";"1";"-10.8485";"-38.6607";"1551192994000";"1551193037000"
607;"64";"Time Fog";"Bosoletti";"";"1";"40.1924";"141.592";"1551192994000";"1551193051000"
608;"8";"The Europe";"Nomad Clan";"";"1";"24.0286";"46.4516";"1551192994000";"1551193158000"
609;"10";"Rise limit’s";"Ludo";"";"1";"47.793";"-81.7783";"1551192994000";"1551193294000"
610;"15";"Streetoceros Behind";"Phlegm";"";"1";"-23.7644";"136.1395";"1551192994000";"1551193489000"
611;"4";"Quarry Imperishable";"Seth Globepainter";"";"1";"-4.2605";"36.1689";"1551192994000";"1551193313000"
612;"58";"Water Huli";"MadC";"";"1";"-31.0595";"29.871";"1551192994000";"1551193198000"
613;"71";"Emma Flower";"Bifido";"";"1";"-17.0153";"143.8454";"1551192994000";"1551193349000"
614;"99";"Dream The";"YASH";"";"1";"34.1637";"92.3555";"1551192994000";"1551193254000"
615;"97";"Reminiscence give";"Ella & Pitr";"";"1";"23.7464";"49.4463";"1551192994000";"1551193234000"
616;"89";"My Calais";"Mr. THOMS";"";"1";"-30.5597";"-68.371";"1551192994000";"1551193042000"
617;"65";"limit’s Neighbour";"Jeroo";"";"1";"-25.082";"123.1641";"1551192994000";"1551193400000"
618;"7";"Dismaland Crumbling";"Zabou";"";"1";"22.7108";"89.8083";"1551192994000";"1551193488000"
619;"35";"Just Jungle";"Brusk";"";"1";"-22.6497";"126.0378";"1551192994000";"1551193293000"
620;"59";"Meanwhile international";"Alexandre Keto";"";"1";"4.5289";"-69.1437";"1551192994000";"1551193162000"
621;"34";"Imperishable Camouflage";"WD aka Wild Drawing";"";"1";"-9.2995";"30.8447";"1551192994000";"1551193019000"
622;"9";"butterfly Ginger";"Okuda San Miguel";"";"1";"47.5823";"-115.1623";"1551192994000";"1551193265000"
623;"31";"the The";"Dulk";"";"1";"25.1868";"-4.7884";"1551192994000";"1551193087000"
624;"97";"The Risveglio";"Greg Gossel";"";"1";"25.2722";"56.0473";"1551192994000";"1551193340000"
625;"98";"The 4";"Hula";"";"1";"32.5969";"-84.12";"1551192994000";"1551193118000"
626;"39";"Nelu .PRIMA.";"Fintan Magee";"";"1";"40.6518";"-104.3303";"1551192994000";"1551193091000"
627;"47";"Study Il";"Pejac";"";"1";"44.4855";"-93.1536";"1551192994000";"1551193465000"
628;"25";"Ripper September";"Pablito Zago";"";"1";"39.0684";"-93.8139";"1551192994000";"1551193423000"
629;"62";"Women Dream";"Saner";"";"1";"50.7198";"-99.9563";"1551192994000";"1551193488000"
630;"44";"Homeless Exploding";"Pastel";"";"1";"38.4712";"103.316";"1551192994000";"1551193413000"
631;"42";"butterfly Nelu";"Millo";"";"1";"39.5546";"-88.3235";"1551192994000";"1551193033000"
632;"66";"Guard Golden";"Sokar Uno";"";"1";"38.8179";"114.2743";"1551192994000";"1551193354000"
633;"43";"skull Rest";"Fin DAC";"";"1";"39.6037";"75.1182";"1551192994000";"1551193204000"
634;"40";"Fog Ripper";"Alexis Diaz";"";"1";"-26.9969";"119.4928";"1551192994000";"1551193410000"
635;"2";"Curtain Antipodes";"Cbloxx & AYLO of Nomad Clan";"";"1";"5.4122";"100.5998";"1551192994000";"1551193055000"
636;"96";"Jungle Earth";"YASH";"";"1";"-52.391";"-71.876";"1551192994000";"1551193257000"
637;"1";"Huli Rest";"Innerfields";"";"1";"43.9592";"90.5412";"1551192994000";"1551193416000"
638;"66";"Inhuman Taaniko";"Tellas";"";"1";"0.4432";"41.7611";"1551192994000";"1551193024000"
639;"55";"Efêmero Doll";"Deih";"";"1";"14.5461";"20.7932";"1551192994000";"1551193038000"
640;"9";"& Clones";"Hilda Palafox";"";"1";"42.49";"100.5815";"1551192994000";"1551193280000"
641;"74";"Likeism and";"Sokar Uno";"";"1";"-31.1329";"25.4273";"1551192994000";"1551193158000"
642;"53";"American Efêmero";"Wes21 & Onur";"";"1";"51.4895";"142.4128";"1551192994000";"1551193373000"
643;"7";"Birds Six";"Tellas";"";"1";"-3.1998";"24.189";"1551192994000";"1551193360000"
644;"60";"All Fog";"Hilda Palafox";"";"1";"33.2892";"-84.0777";"1551192994000";"1551193354000"
645;"57";"fenicottero Arctic";"Gris1";"";"1";"-4.6212";"23.8556";"1551192994000";"1551193114000"
646;"38";"& the";"JAZ";"";"1";"-21.0212";"-52.2773";"1551192994000";"1551193184000"
647;"15";"Ma?ana, Insomnia";"Herakut";"";"1";"47.0264";"41.7462";"1551192994000";"1551193373000"
648;"90";"Big Kind";"Hula";"";"1";"10.6986";"-10.5649";"1551192994000";"1551193154000"
649;"36";"Creeping the";"Corn79";"";"1";"13.897";"-6.6646";"1551192994000";"1551193193000"
650;"10";"The libera";"Jayn";"";"1";"-25.5229";"148.2699";"1551192994000";"1551193448000"
651;"76";"Nelu Zattera";"Aryz";"";"1";"32.0018";"-113.5327";"1551192994000";"1551193082000"
652;"67";"are Dog";"BIK ISMO";"";"1";"36.5623";"43.6318";"1551192994000";"1551193441000"
653;"26";"Neighbour pistola";"Millo";"";"1";"-37.7007";"143.3881";"1551192994000";"1551193437000"
654;"16";"Streetoceros in";"GLeo";"";"1";"26.9535";"91.8949";"1551192994000";"1551193315000"
655;"29";"Desert Nausée";"Alexis Diaz and Borondo";"";"1";"35.1336";"127.3181";"1551192994000";"1551193119000"
656;"32";"But The";"Borondo";"";"1";"-14.8182";"-45.0868";"1551192994000";"1551193284000"
657;"91";"Dismaland cultures";"DANK";"";"1";"23.1274";"-1.8466";"1551192994000";"1551193437000"
658;"11";"Respect the";"Artez and Nikola Mihajlovic";"";"1";"52.1527";"54.5081";"1551192994000";"1551193067000"
659;"52";"The Antipodes";"L7M";"";"1";"-26.7488";"24.6243";"1551192994000";"1551193449000"
660;"64";"fenicottero Europe";"Dzia Krank";"";"1";"27.1381";"-103.4958";"1551192994000";"1551193351000"
661;"81";"Eagle of";"Pastel";"";"1";"-3.4426";"19.6201";"1551192994000";"1551193345000"
662;"27";"Way when";"Mirco Marcacci";"";"1";"29.462";"-90.7808";"1551192994000";"1551193401000"
663;"72";"Dismaland Ripper";"Alexis Diaz";"";"1";"31.8994";"114.8336";"1551192994000";"1551193302000"
664;"37";"Toy and";"Etam Cru";"";"1";"41.598";"-108.2849";"1551192994000";"1551193135000"
665;"95";"Likeism muse";"RONE";"";"1";"48.5337";"-110.1853";"1551192994000";"1551193190000"
666;"67";"Dismaland Harriet";"Dzia Krank";"";"1";"26.4973";"-5.6381";"1551192994000";"1551193094000"
667;"96";"Rescue Search";"Sokar Uno";"";"1";"-12.0553";"-69.8994";"1551192994000";"1551193099000"
668;"81";"Rain Risveglio";"Etam Cru";"";"1";"12.3889";"29.8867";"1551192994000";"1551193296000"
669;"64";"Launcher Flower";"Mr.WOODLAND";"";"1";"27.2256";"-101.664";"1551192994000";"1551193316000"
670;"49";"Big his";"Banksy";"";"1";"27.6709";"110.7629";"1551192994000";"1551193104000"
671;"57";"Desert Reminiscence";"Os Gemeos";"";"1";"-7.2774";"-40.479";"1551192994000";"1551193477000"
672;"43";"Jungle Rest";"Banksy";"";"1";"21.3768";"46.4363";"1551192994000";"1551193178000"
673;"90";"Kokesh Stone";"David MEGGS Hooke";"";"1";"-44.5908";"-73.849";"1551192994000";"1551193401000"
674;"46";"The speaks,";"Seth Globepainter";"";"1";"31.9936";"-112.0724";"1551192994000";"1551193139000"
675;"65";"in Taaniko";"Millo";"";"1";"17.5481";"8.7335";"1551192994000";"1551193391000"
676;"78";"Birds Birds";"Said Dokins";"";"1";"16.9353";"-5.2336";"1551192994000";"1551193228000"
677;"74";"Dream Wings";"SHOK-1";"";"1";"4.4053";"-76.2271";"1551192994000";"1551193204000"
678;"11";"the and";"How & Nosm";"";"1";"39.2631";"105.7105";"1551192994000";"1551193044000"
679;"89";"Balancing Sweetest";"Gola Hundun";"";"1";"26.1733";"31.0543";"1551192994000";"1551193425000"
680;"18";"Rotation of";"Apolo Torres";"";"1";"-27.9664";"135.2879";"1551192994000";"1551193329000"
681;"52";"Stardust Clones";"Mr Cenz";"";"1";"47.997";"-76.8695";"1551192994000";"1551193449000"
682;"69";"Rise Emma";"Bisser";"";"1";"-22.9312";"121.1763";"1551192994000";"1551193452000"
683;"56";"Water .PRIMA.";"Seth";"";"1";"54.2461";"18.6912";"1551192994000";"1551193083000"
684;"62";"Catch Rise";"Nomad Clan";"";"1";"41.4144";"-72.7309";"1551192994000";"1551193362000"
685;"9";"barriers we";"Suso33";"";"1";"-8.8422";"37.9538";"1551192994000";"1551193260000"
686;"48";"dell'anima cultures";"David Walker";"";"1";"11.4487";"-9.8354";"1551192994000";"1551193440000"
687;"42";"Translucent Homeless";"David MEGGS Hooke";"";"1";"-18.2987";"16.2878";"1551192994000";"1551193230000"
688;"15";"crawling Search";"GLeo";"";"1";"42.3185";"70.8896";"1551192994000";"1551193416000"
689;"27";"Clones Dismaland";"Jimmy C";"";"1";"33.1634";"36.2991";"1551192994000";"1551193455000"
690;"92";"Integration Europe";"Borondo";"";"1";"-22.0519";"17.1941";"1551192994000";"1551193450000"
691;"16";"CAT My";"Johannes Mundinger";"";"1";"-15.147";"19.1804";"1551192994000";"1551193063000"
692;"61";"the Il";"Jeroo";"";"1";"3.4712";"36.6084";"1551192994000";"1551193088000"
693;"60";"skull Wall";"The Weird";"";"1";"-9.7332";"17.9864";"1551192994000";"1551193119000"
694;"44";"Rise The";"Banksy";"";"1";"-1.4509";"134.077";"1551192994000";"1551193280000"
695;"8";"Reminiscence Kokesh";"Pixel Pancho";"";"1";"40.9413";"31.1476";"1551192994000";"1551193368000"
696;"71";"Imperishable &";"YASH";"";"1";"19.6895";"95.5572";"1551192994000";"1551193387000"
697;"46";"human Climb";"WD aka Wild Drawing";"";"1";"20.7215";"85.6951";"1551192994000";"1551193413000"
698;"68";"Just Rest";"Bifido";"";"1";"35.9946";"89.9743";"1551192994000";"1551193328000"
699;"28";"Ziggy American";"Jace";"";"1";"44.6608";"112.6912";"1551192994000";"1551193261000"
700;"79";"dell'anima Grow";"Dotmasters";"";"1";"-16.6322";"-50.7112";"1551192994000";"1551193374000"
701;"20";"Ripper skull";"Evoca1";"";"1";"15.5155";"104.4698";"1551192994000";"1551193361000"
702;"18";"Prosperity the";"Dotmasters";"";"1";"35.6109";"60.9971";"1551192994000";"1551193078000"
703;"31";"Europe Kokesh";"Pejac";"";"1";"0.566";"41.0674";"1551192994000";"1551193439000"
704;"3";"Creeping Calais";"Muretz";"";"1";"54.0502";"50.8032";"1551192994000";"1551193150000"
705;"26";"Totoro Zattera";"Tellas";"";"1";"-18.3845";"48.8299";"1551192994000";"1551193139000"
706;"81";"Kind City";"SHOK-1";"";"1";"-15.8691";"-46.0444";"1551192994000";"1551193474000"
707;"95";"Fleet Rotation";"Adnate";"";"1";"-49.3353";"-68.3139";"1551192994000";"1551193142000"
708;"51";"Dog barriers";"Lonac";"";"1";"-19.7306";"122.6711";"1551192994000";"1551193213000"
709;"31";"Behind Neighbour";"WD aka Wild Drawing";"";"1";"25.1992";"113.2384";"1551192994000";"1551193269000"
710;"33";"Fleet Sailor";"Airborne Mark";"";"1";"25.0117";"-0.8864";"1551192994000";"1551193173000"
711;"72";"Taaniko One";"David Walker";"";"1";"46.1806";"-104.9351";"1551192994000";"1551193041000"
712;"65";"Insomnia Man";"Gris1";"";"1";"39.9283";"44.839";"1551192994000";"1551193178000"
713;"81";"Jack of";"Sainer";"";"1";"37.817";"-117.5844";"1551192994000";"1551193348000"
714;"44";"Women Stone";"Pablito Zago";"";"1";"42.9226";"-106.1279";"1551192994000";"1551193295000"
715;"79";"Risveglio if";"GLeo";"";"1";"41.3372";"84.552";"1551192994000";"1551193247000"
716;"57";"Zattera Dismaland";"Li-Hill";"";"1";"-6.0955";"-46.4071";"1551192994000";"1551193372000"
717;"14";"After Launcher";"Seth";"";"1";"37.4431";"-98.6316";"1551192994000";"1551193090000"
718;"72";"Kind with";"INO";"";"1";"35.7692";"127.0603";"1551192994000";"1551193218000"
719;"93";"Light The";"BLU";"";"1";"13.0833";"-86.2217";"1551192994000";"1551193239000"
720;"85";"Europe Streetoceros";"Nychos";"";"1";"3.8925";"-53.424";"1551192994000";"1551193353000"
721;"20";"of and";"Seth";"";"1";"32.0856";"53.2607";"1551192994000";"1551193084000"
722;"31";"pond Homeless";"Jayn";"";"1";"49.6957";"82.5876";"1551192994000";"1551193405000"
723;"94";"Under libera";"INO";"";"1";"23.7885";"22.637";"1551192994000";"1551193373000"
724;"84";"Reminiscence Eagle";"Bordalo II";"";"1";"31.8279";"104.7079";"1551192994000";"1551193103000"
725;"33";"Dream Calais";"Tellas";"";"1";"-9.0683";"-73.3643";"1551192994000";"1551193136000"
726;"36";"Kokesh Banksia";"TARM";"";"1";"36.0032";"-75.7534";"1551192994000";"1551193371000"
727;"20";"dell'anima Medusa";"2Alas";"";"1";"43.4333";"-91.9201";"1551192994000";"1551193233000"
728;"4";"And Streetoceros";"Johannes Mundinger";"";"1";"35.738";"51.9061";"1551192994000";"1551193080000"
729;"8";"Arctic Rotation";"Daniel Padure";"";"1";"41.3881";"-2.2039";"1551192994000";"1551193415000"
730;"33";"Rise up";"Li-Hill";"";"1";"25.9905";"32.479";"1551192994000";"1551193307000"
731;"46";"Ripper We";"MadC";"";"1";"-30.5597";"122.0571";"1551192994000";"1551193225000"
732;"51";"Launcher Wall";"Pastel";"";"1";"-34.302";"118.6545";"1551192994000";"1551193382000"
733;"71";"and Risveglio";"Saner";"";"1";"22.93";"96.9603";"1551192994000";"1551193040000"
734;"83";"Zattera Madonna";"C215";"";"1";"51.9305";"113.2538";"1551192994000";"1551193392000"
735;"56";"The Inhuman";"Ludo";"";"1";"35.8043";"83.3482";"1551192994000";"1551193052000"
736;"50";"if The";"Conor Harrington";"";"1";"17.8394";"-93.6296";"1551192994000";"1551193412000"
737;"69";"Homage Early";"Pixel Pancho";"";"1";"-31.3512";"-64.5526";"1551192994000";"1551193308000"
738;"14";"The Flower";"Sebas Velasco";"";"1";"37.4002";"95.8112";"1551192994000";"1551193285000"
739;"76";"The Just";"Millo";"";"1";"23.7329";"49.8246";"1551192994000";"1551193414000"
740;"41";"Rest Jungle";"Fintan Magee";"";"1";"53.8001";"7.7149";"1551192994000";"1551193041000"
741;"87";"Study muse";"Sebas Velasco and Xabier XTRM";"";"1";"45.1082";"-100.9035";"1551192994000";"1551193132000"
742;"27";"All For";"Remi Rough";"";"1";"48.7469";"37.8655";"1551192994000";"1551193265000"
743;"14";"Geometria Nausée";"Case MaClaim";"";"1";"17.6884";"38.4668";"1551192994000";"1551193405000"
744;"56";"Zattera Göteburg";"Mr. Blob and Korvo";"";"1";"26.0854";"42.1793";"1551192994000";"1551193336000"
745;"12";"Rescue Meanwhile";"WD aka Wild Drawing";"";"1";"9.7068";"-12.6634";"1551192994000";"1551193290000"
746;"36";"the Meanwhile";"Lonac";"";"1";"38.6622";"-75.1233";"1551192994000";"1551193055000"
747;"15";"pistola The";"Saner";"";"1";"44.5242";"88.338";"1551192994000";"1551193125000"
748;"26";"Monument Huli";"Pantónio";"";"1";"11.632";"-15.9698";"1551192994000";"1551193374000"
749;"65";"Sailor Jack";"SHOK-1";"";"1";"31.8798";"-84.4979";"1551192994000";"1551193269000"
750;"12";"Grow fish";"Fintan Magee";"";"1";"19.6979";"-96.5994";"1551192994000";"1551193437000"
751;"92";"My Climb";"Pixel Pancho";"";"1";"31.2405";"98.3039";"1551192994000";"1551193034000"
752;"64";"Meanwhile White";"WD aka Wild Drawing";"";"1";"-11.3613";"-74.0877";"1551192994000";"1551193130000"
753;"77";"To Risveglio";"Os Gemeos";"";"1";"54.9882";"-116.8454";"1551192994000";"1551193265000"
754;"6";"Harriet pair";"Christina Angelina";"";"1";"53.851";"75.3622";"1551192994000";"1551193292000"
755;"32";"butterfly wisdom";"Dzia Krank";"";"1";"31.8101";"67.6636";"1551192994000";"1551193240000"
756;"39";"Dismaland Nitpicking";"Ella & Pitr";"";"1";"-9.7235";"35.4414";"1551192994000";"1551193129000"
757;"43";"Dream Dismaland";"DANK";"";"1";"-21.1809";"118.9722";"1551192994000";"1551193144000"
758;"75";"Story Taaniko";"Etam Cru";"";"1";"39.4091";"140.3382";"1551192994000";"1551193112000"
759;"18";"Risveglio Insomnia";"Jace";"";"1";"-2.6776";"107.5967";"1551192994000";"1551193484000"
760;"64";"Hell Adelphos";"Os Gemeos";"";"1";"40.5572";"-1.5785";"1551192994000";"1551193439000"
761;"51";"No Imperishable";"Millo";"";"1";"39.6911";"39.3692";"1551192994000";"1551193088000"
762;"67";"if Search";"Jeff Soto";"";"1";"31.1932";"117.7179";"1551192994000";"1551193482000"
763;"73";"Reminiscence Birds";"Sepe and Chazme";"";"1";"51.379";"96.7128";"1551192994000";"1551193207000"
764;"69";"Birds Nausée";"Li-Hill";"";"1";"-32.2633";"-63.4249";"1551192994000";"1551193232000"
765;"36";"Knowledge Samurai";"AweR";"";"1";"-3.5023";"-63.5945";"1551192994000";"1551193200000"
766;"93";"Grow Incognito";"Eduardo Kobra";"";"1";"17.9239";"26.9888";"1551192994000";"1551193120000"
767;"73";"Jungle The";"GLeo";"";"1";"26.7179";"44.0278";"1551192994000";"1551193266000"
768;"14";"Streetoceros Medusa";"Johannes Mundinger";"";"1";"27.015";"85.3254";"1551192994000";"1551193409000"
769;"62";"Antipodes Birds";"Telmo Miel";"";"1";"41.5778";"-75.9667";"1551192994000";"1551193023000"
770;"76";"Antipodes fenicottero";"Remi Rough";"";"1";"52.0508";"-72.9256";"1551192994000";"1551193305000"
771;"76";"Streetoceros Taaniko";"Deih";"";"1";"49.2542";"40.8314";"1551192994000";"1551193481000"
772;"36";"Translucent face";"WD aka Wild Drawing";"";"1";"-31.3537";"125.224";"1551192994000";"1551193325000"
773;"20";"Mountain Nelu";"Hyuro";"";"1";"-43.8885";"-68.2685";"1551192994000";"1551193067000"
774;"66";"The Insomnia";"Hyuro";"";"1";"-24.4094";"18.8319";"1551192994000";"1551193431000"
775;"49";"That dell'anima";"NeverCrew";"";"1";"32.147";"-102.897";"1551192994000";"1551193037000"
776;"58";"After Huli";"Rustam QBic";"";"1";"24.064";"19.7774";"1551192994000";"1551193331000"
777;"90";"Slippers Risveglio";"Okuda";"";"1";"35.5099";"96.6786";"1551192994000";"1551193123000"
778;"39";"Quarry Rise";"Eduardo Kobra";"";"1";"5.5696";"31.3519";"1551192994000";"1551193380000"
779;"38";"Rest Neighbour";"David MEGGS Hooke";"";"1";"11.9689";"2.1525";"1551192994000";"1551193329000"
780;"52";"fly? Sailor";"Pablito Zago";"";"1";"-25.1744";"-62.0112";"1551192994000";"1551193187000"
781;"84";"(Tribute Huli";"Phlegm and Mum";"";"1";"25.9988";"12.8936";"1551192994000";"1551193303000"
782;"22";"Fog Discovery";"Gris1";"";"1";"25.9687";"24.0215";"1551192994000";"1551193460000"
783;"55";"Nausée Creeping";"Remi Rough";"";"1";"21.8565";"-8.7361";"1551192994000";"1551193091000"
784;"52";"Just Early";"Zabou";"";"1";"42.1896";"62.12";"1551192994000";"1551193447000"
785;"14";"American Mountain";"Sabek";"";"1";"54.5704";"9.767";"1551192994000";"1551193457000"
786;"60";"Rotation face";"James Bullough";"";"1";"21.7057";"81.4526";"1551192994000";"1551193090000"
787;"23";".PRIMA. in";"Gris1";"";"1";"45.677";"-108.53";"1551192994000";"1551193027000"
788;"13";"And Madonna";"Dzia Krank";"";"1";"48.7282";"-118.1889";"1551192994000";"1551193267000"
789;"81";"Rescue American";"BEZT";"";"1";"-10.6259";"-64.1747";"1551192994000";"1551193023000"
790;"79";"Shoe Clones";"Amok Island";"";"1";"-49.3326";"-67.9961";"1551192994000";"1551193310000"
791;"75";"Suvannamaccha The";"Dzia Krank";"";"1";"-12.5688";"135.4161";"1551192994000";"1551193407000"
792;"97";"green Magritte)";"Nomad Clan";"";"1";"24.6856";"19.5773";"1551192994000";"1551193163000"
793;"82";"Wall Nitpicking";"2501";"";"1";"-23.8893";"46.9624";"1551192994000";"1551193139000"
794;"33";"Antipodes Ripper";"Fin DAC";"";"1";"54.3381";"-122.2389";"1551192994000";"1551193250000"
795;"15";"Medusa Clones";"Conor Harrington";"";"1";"44.3006";"104.4628";"1551192994000";"1551193193000"
796;"45";"Sin Antipodes";"Fintan Magee";"";"1";"22.7813";"106.0201";"1551192994000";"1551193471000"
797;"51";"Ronald’s Homeless";"Wild Welva";"";"1";"12.4713";"123.5988";"1551192994000";"1551193205000"
798;"78";"Il Quarry";"Jayn";"";"1";"31.7555";"42.6866";"1551192994000";"1551193088000"
799;"76";"Samurai Translucent";"Adnate";"";"1";"-4.2386";"26.7114";"1551192994000";"1551193218000"
800;"10";"Women of";"Ella & Pitr";"";"1";"37.4568";"94.2994";"1551192994000";"1551193029000"
801;"60";"Men Equality";"YASH";"";"1";"51.4089";"103.6916";"1551192994000";"1551193376000"
802;"74";"Mountain dell'anima";"Adnate";"";"1";"49.4723";"120.2162";"1551192994000";"1551193284000"
803;"46";"fall? After";"Phlegm";"";"1";"26.5335";"9.2348";"1551192994000";"1551193212000"
804;"45";"Reminiscence You";"Cbloxx & AYLO of Nomad Clan";"";"1";"-24.3211";"-59.7899";"1551192994000";"1551193430000"
805;"11";"fenicottero In";"Apolo Torres";"";"1";"18.3989";"75.9181";"1551192994000";"1551193423000"
806;"97";"Huli Love";"Os Gemeos";"";"1";"-17.3417";"143.3025";"1551192994000";"1551193183000"
807;"88";"Magritte) 4";"Martin Whatson";"";"1";"49.095";"-108.8753";"1551192994000";"1551193445000"
808;"62";"Shape Insomnia";"Okuda San Miguel";"";"1";"-3.5787";"28.3371";"1551192994000";"1551193020000"
809;"64";"Zattera terrorism";"Eduardo Kobra";"";"1";"45.2679";"101.4373";"1551192994000";"1551193450000"
810;"12";"con To";"Mirco Marcacci";"";"1";"33.228";"6.41";"1551192994000";"1551193151000"
811;"84";"Seeker Suvannamaccha";"Seth Globepainter";"";"1";"28.55";"16.5927";"1551192994000";"1551193026000"
812;"76";"Dismaland Prosperity";"Nafir";"";"1";"28.0746";"35.6865";"1551192994000";"1551193378000"
813;"48";"& with";"Violant";"";"1";"23.3792";"11.162";"1551192994000";"1551193321000"
814;"66";"Wake Seeker";"L7M";"";"1";"-8.2737";"-67.2085";"1551192994000";"1551193408000"
815;"26";"I Time";"1010";"";"1";"18.244";"1.3409";"1551192994000";"1551193480000"
816;"78";"Quarry Blind";"Nychos";"";"1";"0.5749";"11.6874";"1551192994000";"1551193194000"
817;"93";"to fall?";"Phlegm and Mum";"";"1";"43.9784";"-103.4081";"1551192994000";"1551193374000"
818;"3";"Camouflage Rise";"Pejac";"";"1";"14.562";"1.4323";"1551192994000";"1551193489000"
819;"9";"For Shout";"Fintan Magee";"";"1";"48.5587";"37.2151";"1551192994000";"1551193208000"
820;"86";"cultures //";"Millo";"";"1";"37.5103";"43.0226";"1551192994000";"1551193207000"
821;"82";"Artists The";"Remi Rough";"";"1";"39.0308";"-83.5315";"1551192994000";"1551193233000"
822;"40";"Jungle Una";"Deih";"";"1";"25.5375";"29.5887";"1551192994000";"1551193154000"
823;"42";"Nitpicking Seeker";"Deih";"";"1";"10.6648";"-71.9415";"1551192994000";"1551193059000"
824;"8";"Blind Equality";"Agostino Iacurci";"";"1";"-29.9607";"21.1698";"1551192994000";"1551193304000"
825;"79";"Likeism Harriet";"Pantónio";"";"1";"42.83";"43.3375";"1551192994000";"1551193378000"
826;"53";"Ripper Butterfly";"Fin DAC, Edo Rath & Nol Art";"";"1";"41.6126";"-113.6082";"1551192994000";"1551193419000"
827;"32";"Fall Hell";"Pastel";"";"1";"45.8921";"23.0496";"1551192994000";"1551193404000"
828;"20";"Huli Birds";"Guido Van Helten";"";"1";"37.9515";"-119.7022";"1551192994000";"1551193285000"
829;"100";"Golden Rest";"Etam Cru";"";"1";"12.4589";"-15.9235";"1551192994000";"1551193482000"
830;"9";"wisdom Sailor";"Suso33";"";"1";"16.1819";"8.2444";"1551192994000";"1551193404000"
831;"76";"City Reminiscence";"Dotmasters";"";"1";"46.473";"-115.2536";"1551192994000";"1551193311000"
832;"62";"Big in";"Okuda San Miguel";"";"1";"-3.0862";"24.8664";"1551192994000";"1551193075000"
833;"8";"the Light";"Banksy";"";"1";"-17.5895";"27.5006";"1551192994000";"1551193295000"
834;"44";"Dream of";"Aaron Li-Hill";"";"1";"-12.3988";"-43.9671";"1551192994000";"1551193072000"
835;"88";"Lion Meanwhile";"Li-Hill";"";"1";"54.9839";"45.9774";"1551192994000";"1551193313000"
836;"94";"As Of";"Rone";"";"1";"36.4414";"63.2753";"1551192994000";"1551193123000"
837;"6";"Relics breeding";"Guido van Helten";"";"1";"-20.4528";"-66.2422";"1551192994000";"1551193354000"
838;"47";"Artists Big";"Johannes Mundinger";"";"1";"37.2199";"92.7135";"1551192994000";"1551193195000"
839;"64";"of Rest";"Apolo Torres";"";"1";"-1.0317";"-75.556";"1551192994000";"1551193237000"
840;"35";"Blue Nausée";"Fintan Magee";"";"1";"18.9931";"25.9848";"1551192994000";"1551193195000"
841;"57";"Blue &";"Adnate";"";"1";"-31.3198";"-59.7988";"1551192994000";"1551193037000"
842;"4";"Il Banksia";"Jorit Agoch";"";"1";"41.9678";"41.935";"1551192994000";"1551193251000"
843;"45";"Europe with";"Zabou";"";"1";"-19.9117";"-55.9806";"1551192994000";"1551193459000"
844;"7";"White give";"SeaCreative";"";"1";"-5.4375";"138.3005";"1551192994000";"1551193065000"
845;"56";"Translucent and";"L7M";"";"1";"-29.0532";"-66.4763";"1551192994000";"1551193234000"
846;"100";"Mountain To";"Banksy";"";"1";"-20.9745";"-43.1655";"1551192994000";"1551193065000"
847;"32";"Imperishable &";"Alexandre Keto";"";"1";"46.4656";"119.1013";"1551192994000";"1551193033000"
848;"65";"Kokesh Göteburg";"Conor Harrington";"";"1";"22.4923";"-9.9158";"1551192994000";"1551193110000"
849;"85";"Equality in";"BLU";"";"1";"39.8932";"79.545";"1551192994000";"1551193140000"
850;"22";"Suvannamaccha Mountain";"Millo";"";"1";"29.5652";"77.7794";"1551192994000";"1551193410000"
851;"67";"Meanwhile Madonna";"Aaron Li-Hill";"";"1";"30.5401";"-103.5508";"1551192994000";"1551193472000"
852;"74";"René Half";"Greg Gossel";"";"1";"38.7238";"-91.9202";"1551192994000";"1551193091000"
853;"83";"Imperishable Dismaland";"Zest";"";"1";"23.2768";"8.3871";"1551192994000";"1551193155000"
854;"80";"Reminiscence Dog";"WD aka Wild Drawing";"";"1";"20.0152";"12.3438";"1551192994000";"1551193303000"
855;"35";"of After";"Deih";"";"1";"26.1638";"114.6895";"1551192994000";"1551193406000"
856;"94";"up Half";"SmugOne";"";"1";"-8.4688";"-43.6666";"1551192994000";"1551193268000"
857;"63";"Nitpicking in";"Okuda";"";"1";"35.1208";"127.3244";"1551192994000";"1551193354000"
858;"26";"Reminiscence The";"TARM";"";"1";"34.3994";"-101.8974";"1551192994000";"1551193353000"
859;"59";"Taaniko head";"Hopare";"";"1";"51.179";"-91.1431";"1551192994000";"1551193070000"
860;"68";"in Sunrise";"Fintan Magee";"";"1";"16.2036";"-97.2268";"1551192994000";"1551193086000"
861;"53";"Respect My";"Nychos";"";"1";"-9.4337";"-69.4603";"1551192994000";"1551193169000"
862;"57";"Taaniko Efêmero";"Hula";"";"1";"33.2706";"110.2342";"1551192994000";"1551193213000"
863;"63";"dell'anima Mother’s";"Bosoletti";"";"1";"37.3037";"117.7959";"1551192994000";"1551193409000"
864;"92";"dell'anima the";"Seth";"";"1";"45.5747";"0.8745";"1551192994000";"1551193019000"
865;"7";"Butterfly Nausée";"Sepe and Chazme";"";"1";"-19.1359";"34.947";"1551192994000";"1551193141000"
866;"54";"Suvannamaccha Kokesh";"SETH Globepainter";"";"1";"37.9082";"-103.5932";"1551192994000";"1551193191000"
867;"26";"Meanwhile we";"Jeroo";"";"1";"-17.845";"-52.5931";"1551192994000";"1551193264000"
868;"72";"Clones Efêmero";"Violant";"";"1";"23.9895";"44.1694";"1551192994000";"1551193304000"
869;"32";"in Huli";"Pantónio";"";"1";"19.6487";"53.1311";"1551192994000";"1551193435000"
870;"67";"Impact Ziggy";"2Alas";"";"1";"49.987";"34.5016";"1551192994000";"1551193087000"
871;"14";"Wall Wings";"Tellas";"";"1";"46.1592";"-78.9543";"1551192994000";"1551193235000"
872;"77";"fish Water";"Guido van Helten";"";"1";"46.2932";"101.2199";"1551192994000";"1551193368000"
873;"53";"Meanwhile Fog";"Jayn";"";"1";"34.973";"62.6947";"1551192994000";"1551193237000"
874;"48";"Exploding -";"Deih";"";"1";"20.5333";"18.119";"1551192994000";"1551193305000"
875;"79";"Europe Arctic";"Sainer";"";"1";"51.2343";"38.105";"1551192994000";"1551193464000"
876;"62";"Insomnia The";"Gola Hundun";"";"1";"47.9643";"65.5834";"1551192994000";"1551193362000"
877;"59";"Just Women";"Pejac";"";"1";"14.6292";"104.5952";"1551192994000";"1551193044000"
878;"31";"Antipodes cosmos";"Mr. THOMS";"";"1";"1.3266";"-58.2329";"1551192994000";"1551193176000"
879;"40";"Rescue Imperishable";"Wild Welva";"";"1";"-4.3425";"12.5931";"1551192994000";"1551193166000"
880;"54";"Totoro Prosperity";"Airborne Mark";"";"1";"22.5836";"19.3523";"1551192994000";"1551193016000"
881;"39";"Sweetest the";"Fintan Magee";"";"1";"32.1211";"41.9427";"1551192994000";"1551193388000"
882;"54";"Mountain .PRIMA.";"Nychos";"";"1";"-8.6655";"-45.701";"1551192994000";"1551193052000"
883;"29";"barriers Man";"DANK";"";"1";"38.764";"20.7221";"1551192994000";"1551193283000"
884;"28";"Day For";"Dulk";"";"1";"-17.4627";"49.2885";"1551192994000";"1551193065000"
885;"100";"Nausée Risveglio";"Telmo Miel";"";"1";"23.3845";"115.1436";"1551192994000";"1551193324000"
886;"39";"Rest Desert";"RONE";"";"1";"13.8792";"121.3389";"1551192994000";"1551193352000"
887;"46";"Water Antipodes";"MadC";"";"1";"34.8458";"-112.5693";"1551192994000";"1551193266000"
888;"2";"(Tribute Suvannamaccha";"Aaron Li-Hill";"";"1";"54.8019";"-104.5569";"1551192994000";"1551193043000"
889;"57";"in Exploding";"Seth";"";"1";"46.3319";"8.054";"1551192994000";"1551193411000"
890;"89";"Rotation Reminiscence";"AnimalitoLand";"";"1";"22.6272";"76.9323";"1551192994000";"1551193092000"
891;"35";"limit’s Past";"Nomad Clan";"";"1";"13.4587";"40.0251";"1551192994000";"1551193160000"
892;"23";"Göteburg Stardust";"GLeo";"";"1";"29.3958";"60.0701";"1551192994000";"1551193074000"
893;"65";"We White";"Phlegm";"";"1";"39.7847";"-93.7354";"1551192995000";"1551193401000"
894;"79";"Golden Rescue";"MadC";"";"1";"-23.4103";"125.2468";"1551192995000";"1551193105000"
895;"22";"Big Evening";"Hyuro";"";"1";"-28.4172";"143.0853";"1551192995000";"1551193196000"
896;"22";"human the";"Guido van Helten";"";"1";"-8.2569";"-76.9657";"1551192995000";"1551193015000"
897;"35";"After Rain";"Nychos";"";"1";"28.5223";"90.9103";"1551192995000";"1551193332000"
898;"78";"Huli Love";"Mr.WOODLAND";"";"1";"6.3654";"101.0554";"1551192995000";"1551193186000"
899;"93";"Heaven barriers";"Agostino Iacurci";"";"1";"31.9015";"93.1443";"1551192995000";"1551193341000"
900;"46";"Talk Inhuman";"Ella & Pitr";"";"1";"43.756";"6.4069";"1551192995000";"1551193478000"
901;"19";"Ronald’s American";"Case MaClaim";"";"1";"24.9742";"114.8267";"1551192995000";"1551193193000"
902;"62";"Rise Nelu";"Tellas";"";"1";"7.1172";"10.3182";"1551192995000";"1551193082000"
903;"55";"toni crawling";"Dotmasters";"";"1";"5.0371";"43.8809";"1551192995000";"1551193453000"
904;"28";"Blind and";"Conor Harrington";"";"1";"10.2663";"-4.0446";"1551192995000";"1551193043000"
905;"5";"Jungle visionary";"Fin DAC";"";"1";"-11.8108";"-51.4937";"1551192995000";"1551193130000"
906;"78";"Madonna of";"Banksy";"";"1";"-25.6968";"31.0668";"1551192995000";"1551193285000"
907;"43";"Exploding Streetoceros";"Gola Hundun";"";"1";"45.3861";"24.9861";"1551192995000";"1551193192000"
908;"67";"human Nelu";"Okuda San Miguel";"";"1";"25.6765";"58.2923";"1551192995000";"1551193052000"
909;"56";"skull The";"Hopare";"";"1";"9.9651";"8.7935";"1551192995000";"1551193213000"
910;"44";"Antipodes Wall";"Martin Whatson";"";"1";"48.9019";"-97.6489";"1551192995000";"1551193244000"
911;"78";"Final Rotation";"Suso33";"";"1";"34.8205";"119.0051";"1551192995000";"1551193058000"
912;"89";"Equality pistola";"MadC";"";"1";"43.3297";"-8.9681";"1551192995000";"1551193311000"
913;"44";"Women Women";"Muretz";"";"1";"-22.1304";"127.9065";"1551192995000";"1551193201000"
914;"36";"Women butterfly";"Alexis Diaz";"";"1";"50.0686";"40.7201";"1551192995000";"1551193395000"
915;"76";"Prosperity The";"Elementi Sotterranei";"";"1";"-31.7179";"23.4625";"1551192995000";"1551193330000"
916;"14";"barriers Rise";"Ludo";"";"1";"-9.6881";"-72.5766";"1551192995000";"1551193439000"
917;"38";"Prosperity Cecil";"Case MaClaim";"";"1";"-10.5285";"35.7759";"1551192995000";"1551193457000"
918;"98";"the Clones";"SmugOne";"";"1";"44.6181";"40.0486";"1551192995000";"1551193481000"
919;"70";"Meanwhile Sin";"Alex Senna";"";"1";"50.534";"-59.5293";"1551192995000";"1551193054000"
920;"58";"Blue Never";"SeaCreative";"";"1";"23.1288";"13.5757";"1551192995000";"1551193367000"
921;"54";"in Stages";"Hula";"";"1";"-18.0543";"14.3854";"1551192995000";"1551193364000"
922;"14";"Ronald’s Sweetest";"Anet Ronen";"";"1";"-4.1938";"-51.7521";"1551192995000";"1551193484000"
923;"61";"Clones human";"Suso33";"";"1";"30.0473";"55.8159";"1551192995000";"1551193328000"
924;"58";"Birds Respect";"How & Nosm";"";"1";"34.9557";"0.0359";"1551192995000";"1551193483000"
925;"100";"Butterfly of";"Millo";"";"1";"14.9109";"-89.5926";"1551192995000";"1551193346000"
926;"81";"Stages Moving";"Airborne Mark";"";"1";"38.3873";"61.3931";"1551192995000";"1551193259000"
927;"25";"Where Homeless";"Farid Rueda";"";"1";"-42.5368";"-71.3877";"1551192995000";"1551193483000"
928;"20";"LaBrea The";"Gris1";"";"1";"35.6282";"63.7764";"1551192995000";"1551193060000"
929;"49";"Fall Future";"Sokar Uno";"";"1";"9.5933";"78.1088";"1551192995000";"1551193492000"
930;"71";"Europe of";"INO";"";"1";"28.9127";"20.6824";"1551192995000";"1551193092000"
931;"56";"Earth Climb";"Alex Senna";"";"1";"28.9499";"81.1156";"1551192995000";"1551193246000"
932;"31";"and Monument";"Guido Van Helten";"";"1";"19.9941";"103.2229";"1551192995000";"1551193203000"
933;"11";"Translucent Streetoceros";"Dzia Krank";"";"1";"30.1507";"118.7022";"1551192995000";"1551193442000"
934;"19";"pair pair";"James Bullough";"";"1";"-23.8988";"26.1335";"1551192995000";"1551193259000"
935;"40";"limit’s Zattera";"BLU";"";"1";"2.5746";"17.8776";"1551192995000";"1551193345000"
936;"39";"when Reminiscence";"Hyuro";"";"1";"22.1715";"31.9025";"1551192995000";"1551193242000"
937;"84";"cosmos Ma?ana,";"Levalet";"";"1";"41.6619";"94.9222";"1551192995000";"1551193349000"
938;"95";"Catch .PRIMA.";"Case MaClaim";"";"1";"32.4914";"94.3465";"1551192995000";"1551193038000"
939;"96";"Cecil Curtain";"Above";"";"1";"26.0281";"37.6398";"1551192995000";"1551193451000"
940;"2";"Nitpicking a";"Bordalo II";"";"1";"-18.408";"140.419";"1551192995000";"1551193389000"
941;"82";"with Pointless";"Adnate";"";"1";"22.5288";"78.6833";"1551192995000";"1551193199000"
942;"80";"Risveglio fenicottero";"GLeo";"";"1";"49.7082";"-82.6243";"1551192995000";"1551193046000"
943;"86";"of Save";"C215";"";"1";"12.7649";"101.6054";"1551192995000";"1551193317000"
944;"64";"Jungle Antipodes";"Banksy";"";"1";"-23.9066";"130.023";"1551192995000";"1551193205000"
945;"73";"of Rest";"Eversiempre";"";"1";"52.1174";"124.017";"1551192995000";"1551193439000"
946;"49";"Desert Nelu";"Caratoes";"";"1";"47.9643";"113.206";"1551192995000";"1551193350000"
947;"38";"Story skull";"Gris1";"";"1";"-18.9901";"24.6143";"1551192995000";"1551193214000"
948;"19";"Geometria Lion";"Brusk";"";"1";"-16.3713";"38.2525";"1551192995000";"1551193038000"
949;"43";"the City";"Levalet";"";"1";"-29.0081";"147.6232";"1551192995000";"1551193372000"
950;"88";"pistola Magritte)";"Nafir";"";"1";"24.9001";"121.5321";"1551192995000";"1551193357000"
951;"47";"Nitpicking Emma";"Hyuro";"";"1";"-24.9545";"143.4664";"1551192995000";"1551193044000"
952;"59";"Rain The";"Levalet";"";"1";"53.1147";"-114.7835";"1551192995000";"1551193164000"
953;"31";"Clones Story";"Alexis Diaz and Borondo";"";"1";"26.3021";"-1.4849";"1551192995000";"1551193171000"
954;"68";"and Huli";"Elementi Sotterranei";"";"1";"22.8859";"52.5206";"1551192995000";"1551193279000"
955;"3";"up me";"Wes21 & Onur";"";"1";"45.5736";"122.6435";"1551192995000";"1551193083000"
956;"15";"Fleet Sweetest";"INO";"";"1";"-3.6312";"-78.4299";"1551192995000";"1551193291000"
957;"99";"The Efêmero";"Guido Van Helten";"";"1";"27.9111";"118.8902";"1551192995000";"1551193461000"
958;"35";"Streetoceros Baxteri";"BIK ISMO";"";"1";"-0.1405";"-51.0253";"1551192995000";"1551193096000"
959;"70";"Seeker Wall";"Guido Van Helten";"";"1";"32.4681";"86.8475";"1551192995000";"1551193129000"
960;"54";"with Sweetest";"Alberonero";"";"1";"-18.0875";"-63.2922";"1551192995000";"1551193241000"
961;"26";"Efêmero Homage";"AweR";"";"1";"28.3215";"2.0119";"1551192995000";"1551193395000"
962;"78";"Never what";"Telmo Miel";"";"1";"14.678";"105.6284";"1551192995000";"1551193258000"
963;"21";"Blind Magritte)";"Mr. THOMS";"";"1";"41.8063";"107.5103";"1551192995000";"1551193345000"
964;"11";"wisdom Dismaland";"Violant";"";"1";"51.3946";"20.5015";"1551192995000";"1551193217000"
965;"52";"Rotation //";"Greg Gossel";"";"1";"-30.379";"-56.2227";"1551192995000";"1551193445000"
966;"63";"The Baxteri";"Bordalo II";"";"1";"45.8973";"69.5502";"1551192995000";"1551193115000"
967;"4";"Day Jack";"Dourone";"";"1";"42.619";"14.0301";"1551192995000";"1551193159000"
968;"32";"4 and";"Jorit Agoch";"";"1";"20.9222";"-11.2916";"1551192995000";"1551193377000"
969;"80";"Wake Rise";"Innerfields";"";"1";"20.3432";"86.5135";"1551192995000";"1551193245000"
970;"76";"Exploding to";"Sepe and Chazme";"";"1";"28.7883";"-0.5373";"1551192995000";"1551193269000"
971;"96";"Cruel Nausée";"Evoca1";"";"1";"49.3663";"-83.1336";"1551192995000";"1551193055000"
972;"37";"Dog Catch";"Phlegm";"";"1";"13.4581";"104.9919";"1551192995000";"1551193296000"
973;"75";"Samurai Slippers";"YASH";"";"1";"39.233";"-79.4942";"1551192995000";"1551193452000"
974;"72";"City Lion";"Millo";"";"1";"43.1713";"-2.2408";"1551192995000";"1551193227000"
975;"8";"Magritte) Fleet";"Fin DAC";"";"1";"-40.4073";"-67.878";"1551192995000";"1551193020000"
976;"36";"Prosperity Madonna";"Brusk";"";"1";"-15.1231";"-41.2513";"1551192995000";"1551193104000"
977;"21";"Antipodes Water";"Bifido";"";"1";"-16.1636";"131.5776";"1551192995000";"1551193209000"
978;"46";"butterfly Soho";"Hopare";"";"1";"23.3647";"-99.0974";"1551192995000";"1551193336000"
979;"29";"CAT artist";"Alberonero";"";"1";"34.1348";"59.4349";"1551192995000";"1551193051000"
980;"11";"Climb Meanwhile";"Cbloxx & AYLO of Nomad Clan";"";"1";"-3.9721";"-59.6125";"1551192995000";"1551193311000"
981;"23";"We Shout";"Pablito Zago";"";"1";"5.8531";"35.0174";"1551192995000";"1551193135000"
982;"4";"crawling Way";"Hopare";"";"1";"21.8871";"31.559";"1551192995000";"1551193078000"
983;"52";"Catch Streetoceros";"Dulk";"";"1";"26.715";"69.5945";"1551192995000";"1551193462000"
984;"55";"Totoro Rise";"Corn79";"";"1";"29.5281";"56.7556";"1551192995000";"1551193341000"
985;"62";"Never There";"Bisser";"";"1";"54.9626";"-122.9966";"1551192995000";"1551193297000"
986;"38";"the I";"Adnate";"";"1";"43.931";"-85.4714";"1551192995000";"1551193115000"
987;"48";"fenicottero of";"YASH";"";"1";"48.1876";"56.1969";"1551192995000";"1551193018000"
988;"52";"Flower up";"BEZT";"";"1";"-20.8626";"136.2408";"1551192995000";"1551193097000"
989;"43";"Cruel Europe";"Irony";"";"1";"-1.6609";"15.1868";"1551192995000";"1551193107000"
990;"77";"and Creeping";"AweR";"";"1";"-15.1562";"168.1057";"1551192995000";"1551193154000"
991;"98";"Save Meanwhile";"Mr. Blob and Korvo";"";"1";"45.105";"-74.8608";"1551192995000";"1551193331000"
992;"35";"Respect Study";"DANK";"";"1";"-5.1033";"143.9877";"1551192995000";"1551193256000"
993;"54";"Golden Neighbour";"Daniel Eime";"";"1";"-12.0002";"-67.9201";"1551192995000";"1551193224000"
994;"1";"Sweetest Women";"Bifido";"";"1";"50.6312";"-106.0736";"1551192995000";"1551193317000"
995;"85";"Nausée Of";"YASH";"";"1";"9.0104";"-11.7822";"1551192995000";"1551193325000"
996;"48";"barriers Where";"Dotmasters";"";"1";"50.9557";"-125.6339";"1551192995000";"1551193361000"
997;"38";"The Desert";"Corn79";"";"1";"10.0174";"11.7037";"1551192995000";"1551193083000"
998;"31";"Rotation We";"James Bullough";"";"1";"-15.9317";"-62.5014";"1551192995000";"1551193354000"
999;"5";"Jungle Respect";"Case MaClaim";"";"1";"50.4831";"138.4869";"1551192995000";"1551193128000"
1000;"7";"The Antipodes";"David Walker";"";"1";"37.6721";"-4.5728";"1551192995000";"1551193403000"
1001;"38";"Incognito Clones";"Irony";"";"1";"42.8312";"20.6373";"1551192995000";"1551193032000"
1002;"84";"of Heaven";"Dzia Krank";"";"1";"34.4122";"53.6891";"1551192995000";"1551193246000"
1003;"65";"Totoro Respect";"Remed";"";"1";"-23.552";"125.9574";"1551192995000";"1551193085000"
1004;"71";"We Blue";"Muretz";"";"1";"-2.1226";"-79.4133";"1551192995000";"1551193111000"
1005;"90";"Nitpicking The";"Artez and Nikola Mihajlovic";"";"1";"12.9333";"4.2863";"1551192995000";"1551193152000"
1006;"25";"MOUF My";"Alex Senna";"";"1";"18.5902";"9.627";"1551192995000";"1551193058000"
1007;"32";"Water Zattera";"SHOK-1";"";"1";"53.1455";"-100.9991";"1551192995000";"1551193407000"
1008;"65";"of The";"Pejac";"";"1";"20.128";"43.8701";"1551192995000";"1551193286000"
1009;"91";"Heaven the";"Alexis Diaz";"";"1";"35.2241";"71.4357";"1551192995000";"1551193270000"
1010;"60";"Meanwhile Homeless";"Millo";"";"1";"-31.8264";"131.995";"1551192995000";"1551193054000"
1011;"94";"Streetoceros Rest";"ONUR & Wes21";"";"1";"54.448";"86.4556";"1551192995000";"1551193452000"
1012;"84";"Dream Rise";"Fintan Magee";"";"1";"-14.1484";"-40.1536";"1551192995000";"1551193478000"
1013;"12";"Stardust Emma";"Tellas";"";"1";"16.8398";"5.9264";"1551192995000";"1551193325000"
1014;"84";"Integration Silence";"Etam Cru";"";"1";"32.4009";"105.1063";"1551192995000";"1551193175000"
1015;"71";"in Blind";"Phlegm";"";"1";"-6.0382";"24.9138";"1551192995000";"1551193401000"
1016;"13";"Homage Hell";"Suso33";"";"1";"36.9569";"129.2293";"1551192995000";"1551193105000"
1017;"13";"Fog Fog";"SHOK-1";"";"1";"-18.7039";"30.7865";"1551192995000";"1551193473000"
1018;"93";"Evening Rescue";"Banksy";"";"1";"41.3587";"47.2804";"1551192995000";"1551193464000"
1019;"83";"American Fleet";"Daniel Padure";"";"1";"18.5605";"12.5448";"1551192995000";"1551193431000"
1020;"87";"up Risveglio";"Aaron Li-Hill";"";"1";"11.4755";"40.1396";"1551192995000";"1551193203000"
1021;"73";"City The";"Evoca1";"";"1";"22.187";"56.6276";"1551192995000";"1551193399000"
1022;"74";"Quarry Artists";"Johannes Mundinger";"";"1";"46.2354";"-78.3161";"1551192995000";"1551193281000"
1023;"41";"Rest Story";"SETH Globepainter";"";"1";"37.3969";"87.4355";"1551192995000";"1551193197000"
1024;"42";"wisdom international";"Nafir";"";"1";"24.9012";"116.1272";"1551192995000";"1551193280000"
1025;"50";"To Story";"GLeo";"";"1";"38.1632";"-7.7651";"1551192995000";"1551193370000"
