id;"user_id";"title";"author";"description";"still_there";"lat";"lng";"date";"confirmation_date"
1;"1";"Geometria dell'anima";"Mirco Marcacci";"";"1";"42.297";"12.5959";"1505469057000";"1510654178000"
2;"1";"Madonna con pistola";"Banksy";"";"1";"40.8517";"14.2587";"1505469283000";"1510654178000"
3;"1";"Zattera";"SWAN";"";"1";"45.1892";"7.88572";"1505469357000";"1510654178000"
4;"1";"Blind";"Millo";"";"1";"41.0984";"15.0014";"1505469410000";"1510654178000"
5;"1";"Men in the Smoke";"SeaCreative";"";"1";"45.8183";"8.825";"1505469483000";"1510654178000"
6;"1";"Love Seeker";"Millo";"";"1";"45.4608";"9.21142";"1505480037000";"1510654178000"
7;"1";"<Nessun titolo>";"Johannes Mundinger";"";"1";"52.4821";"13.3892";"1510654178000";"1510654178000"
8;"1";"Insomnia";"Millo";"";"1";"67.2839";"14.3809";"1510654178000";"1510654178000"
9;"1";"<Nessun titolo>";"1010";"";"1";"48.8191";"2.3718";"1510654178000";"1510654178000"
10;"1";"I Lost my Shoe when I Saw you";"Lonac";"";"1";"26.7131";"-80.0538";"1510654178000";"1510654178000"
11;"1";"<Nessun titolo>";"2501";"";"1";"45.5148";"9.36705";"1510654178000";"1510654178000"
12;"1";"<Nessun titolo>";"2Alas";"";"1";"28.0226";"-81.7311";"1510654178000";"1510654178000"
13;"1";"<Nessun titolo>";"2Alas";"";"1";"26.7121";"-80.054";"1510654178000";"1510654178000"
14;"1";"The city of the 4 cultures";"JAZ";"";"1";"42.0623";"-1.60344";"1510654178000";"1510654178000"
15;"1";"Incognito";"Above";"";"1";"-26.2065";"28.0665";"1510654178000";"1510654178000"
16;"1";"<Nessun titolo>";"Adnate";"";"1";"-35.8095";"145.453";"1510654178000";"1510654178000"
17;"1";"<Nessun titolo>";"Alexis Diaz";"";"1";"36.0625";"-94.1579";"1510654178000";"1510654178000"
18;"1";"Water";"Agostino Iacurci";"";"1";"50.5042";"30.4314";"1510654178000";"1510654178000"
19;"1";"My Neighbour Totoro";"Airborne Mark";"";"1";"51.539";"-0.142555";"1510654178000";"1510654178000"
20;"1";"<Nessun titolo>";"Alexandre Keto";"";"1";"51.4625";"-2.58717";"1510654178000";"1510654178000"
21;"1";"<Nessun titolo>";"Alexis Diaz and Borondo";"";"1";"18.4483";"-66.0663";"1510654178000";"1510654178000"
22;"1";"The Wings of the Butterfly";"Alexis Diaz";"";"1";"51.7748";"19.4657";"1510654178000";"1510654178000"
23;"1";"That Rain in The Evening";"Alex Senna";"";"1";"55.2312";"11.7642";"1510654178000";"1510654178000"
24;"1";"Six Stages of Banksia Baxteri";"Amok Island";"";"1";"-33.6581";"119.531";"1510654178000";"1510654178000"
25;"1";"Creeping and crawling";"Anet Ronen";"";"1";"29.7473";"-95.3594";"1510654178000";"1510654178000"
26;"1";"Just human";"AnimalitoLand";"";"1";"67.2824";"14.3781";"1510654178000";"1510654178000"
27;"1";"Equality";"Apolo Torres";"";"1";"41.2475";"13.5873";"1510654178000";"1510654178000"
28;"1";"Early White";"Artez and Nikola Mihajlovic";"";"1";"43.141";"20.5183";"1510654178000";"1510654178000"
29;"1";"Clones";"Aryz";"";"1";"42.3347";"-83.0309";"1510654178000";"1510654178000"
30;"1";"<Nessun titolo>";"AweR";"";"1";"43.5607";"27.8261";"1510654178000";"1510654178000"
31;"1";"<Nessun titolo>";"Zabou";"";"1";"51.5271";"-0.055496";"1510654178000";"1510654178000"
32;"1";"Dismaland";"Banksy";"";"1";"51.3409";"-2.97991";"1510654178000";"1510654178000"
33;"1";"<Nessun titolo>";"Banksy";"";"1";"50.9648";"1.8394";"1510654178000";"1510654178000"
34;"1";"Europe";"BEZT";"";"1";"49.4904";"8.46239";"1510654178000";"1510654178000"
35;"1";"Meanwhile";"Bifido";"";"1";"51.5494";"0.070643";"1510654178000";"1510654178000"
36;"1";"<Nessun titolo>";"BIK ISMO";"";"1";"36.1689";"-115.137";"1510654178000";"1510654178000"
37;"1";"<Nessun titolo>";"BIK ISMO";"";"1";"25.8039";"-80.2018";"1510654178000";"1510654178000"
38;"1";"Big fish in a small pond";"Bisser";"";"1";"51.0483";"3.74223";"1510654178000";"1510654178000"
39;"1";"<Nessun titolo>";"BLU";"";"1";"40.8542";"14.2481";"1510654178000";"1510654178000"
40;"1";"<Nessun titolo>";"BLU";"";"1";"41.928";"12.5666";"1510654178000";"1510654178000"
41;"1";"<Nessun titolo>";"Bordalo II";"";"1";"44.8491";"-0.560885";"1510654178000";"1510654178000"
42;"1";"<Nessun titolo>";"Borondo";"";"1";"52.4986";"13.3595";"1510654178000";"1510654178000"
43;"1";"<Nessun titolo>";"Bosoletti";"";"1";"-34.9645";"-54.9512";"1510654178000";"1510654178000"
44;"1";"<Nessun titolo>";"Brusk";"";"1";"-22.8966";"-43.1869";"1510654178000";"1510654178000"
45;"1";"Streetoceros";"Brusk";"";"1";"45.4335";"4.3931";"1510654178000";"1510654178000"
46;"1";"<Nessun titolo>";"C215";"";"1";"40.4225";"-3.70485";"1510654178000";"1510654178000"
47;"1";"<Nessun titolo>";"Caratoes";"";"1";"51.5364";"-0.07417";"1510654178000";"1510654178000"
48;"1";"Rest";"Case MaClaim";"";"1";"26.7166";"-80.051";"1510654178000";"1510654178000"
49;"1";"Cruel face of international terrorism";"Case MaClaim";"";"1";"41.0154";"28.9332";"1510654178000";"1510654178000"
50;"1";"<Nessun titolo>";"Case MaClaim";"";"1";"40.7008";"-73.9188";"1510654178000";"1510654178000"
51;"1";"<Nessun titolo>";"Case MaClaim";"";"1";"53.4855";"-2.23336";"1510654178000";"1510654178000"
52;"1";"<Nessun titolo>";"Cbloxx & AYLO of Nomad Clan";"";"1";"53.4096";"-2.98978";"1510654178000";"1510654178000"
53;"1";"<Nessun titolo>";"Christina Angelina";"";"1";"54.6042";"-5.93089";"1510654178000";"1510654178000"
54;"1";"<Nessun titolo>";"Conor Harrington";"";"1";"51.583";"-0.016995";"1510654178000";"1510654178000"
55;"1";"Study of Integration";"Corn79";"";"1";"45.9154";"11.0322";"1510654178000";"1510654178000"
56;"1";".PRIMA.";"Daniel Eime";"";"1";"40.6699";"-7.89554";"1510654178000";"1510654178000"
57;"1";"<Nessun titolo>";"Daniel Padure";"";"1";"37.108";"-8.67215";"1510654178000";"1510654178000"
58;"1";"<Nessun titolo>";"DANK";"";"1";"51.5613";"-0.136824";"1510654178000";"1510654178000"
59;"1";"The Light Guard";"DANK";"";"1";"45.497";"9.22438";"1510654178000";"1510654178000"
60;"1";"<Nessun titolo>";"David MEGGS Hooke";"";"1";"34.0431";"-118.234";"1510654178000";"1510654178000"
61;"1";"<Nessun titolo>";"David Walker";"";"1";"50.7234";"1.60282";"1510654178000";"1510654178000"
62;"1";"<Nessun titolo>";"Deih";"";"1";"67.133";"16.0766";"1510654178000";"1510654178000"
63;"1";"We humans only can watch at cosmos face trapped by our own limit’s perception";"Deih";"";"0";"50.9698";"4.68626";"1510654178000";"1510654178000"
64;"1";"Toy Town - Ginger Doll";"Dotmasters";"";"1";"51.372";"-0.100436";"1510654178000";"1510654178000"
65;"1";"Reflexion // Respect";"Dourone";"";"1";"50.7257";"1.60787";"1510654178000";"1510654178000"
66;"1";"The last breeding pair";"Dulk";"";"1";"49.5324";"5.76111";"1510654178000";"1510654178000"
67;"1";"The Tortoise & Harriet";"Dulk";"";"1";"39.7594";"-104.985";"1510654178000";"1510654178000"
68;"1";"Catch the butterfly";"Dzia Krank";"";"1";"50.8898";"5.96967";"1510654178000";"1510654178000"
69;"1";"Golden Eagle";"Dzia Krank";"";"1";"67.2843";"14.3769";"1510654178000";"1510654178000"
70;"1";"Il fenicottero";"Dzia Krank";"";"1";"37.7201";"12.4909";"1510654178000";"1510654178000"
71;"1";"Save the Arctic";"Dzia Krank";"";"1";"51.207";"4.44903";"1510654178000";"1510654178000"
72;"1";"Tribute to Cecil the Lion";"Dzia Krank";"";"1";"55.8494";"-4.24988";"1510654178000";"1510654178000"
73;"1";"<Nessun titolo>";"Dzia Krank";"";"1";"50.9195";"4.41999";"1510654178000";"1510654178000"
74;"1";"Ziggy Stardust";"Eduardo Kobra";"";"1";"40.7345";"-74.0444";"1510654178000";"1510654178000"
75;"1";"Yorick’s skull";"Eduardo Kobra";"";"0";"26.7135";"-80.0508";"1510654178000";"1510654178000"
76;"1";"<Nessun titolo>";"Elementi Sotterranei";"";"1";"46.2814";"13.144";"1510654178000";"1510654178000"
77;"1";"<Nessun titolo>";"Ella & Pitr";"";"1";"40.6374";"15.1067";"1510654178000";"1510654178000"
78;"1";"The Silence of the Slippers After the Rain";"Ella & Pitr";"";"1";"41.8999";"-87.6843";"1510654178000";"1510654178000"
79;"1";"<Nessun titolo>";"Etam Cru";"";"1";"25.2077";"55.2682";"1510654178000";"1510654178000"
80;"1";"<Nessun titolo>";"Etam Cru";"";"1";"57.0478";"9.92469";"1510654178000";"1510654178000"
81;"1";"Homage to the Past and Future";"Eversiempre";"";"1";"51.2207";"2.90659";"1510654178000";"1510654178000"
82;"1";"Imperishable Relics";"Evoca1";"";"1";"48.1956";"16.3564";"1510654178000";"1510654178000"
83;"1";"For All Seasons";"Farid Rueda";"";"1";"51.4823";"11.9953";"1510654178000";"1510654178000"
84;"1";"Kokesh";"Fin DAC, Edo Rath & Nol Art";"";"1";"51.5673";"4.78852";"1510654178000";"1510654178000"
85;"1";"Taaniko";"Fin DAC";"";"1";"-37.6451";"176.188";"1510654178000";"1510654178000"
86;"1";"Moving the Pointless Monument";"Fintan Magee";"";"1";"50.9698";"4.686";"1510654178000";"1510654178000"
87;"1";"<Nessun titolo>";"Fintan Magee";"";"1";"58.9662";"5.76293";"1510654178000";"1510654178000"
88;"1";"The visionary";"Fintan Magee";"";"1";"50.5096";"30.5785";"1510654178000";"1510654178000"
89;"1";"The Day After";"Fintan Magee";"";"1";"-27.58";"151.955";"1510654178000";"1510654178000"
90;"1";"<Nessun titolo>";"Giulio Vespirini";"";"1";"41.0965";"15.0013";"1510654178000";"1510654178000"
91;"1";"<Nessun titolo>";"GLeo";"";"1";"46.1609";"-1.21471";"1510654178000";"1510654178000"
92;"1";"Risveglio";"Gola Hundun";"";"1";"38.9142";"16.5701";"1510654178000";"1510654178000"
93;"1";"<Nessun titolo>";"Greg Gossel";"";"1";"44.9761";"-93.2778";"1510654178000";"1510654178000"
94;"1";"CAT and MOUF";"Greg Mike";"";"1";"42.3442";"-83.0386";"1510654178000";"1510654178000"
95;"1";"<Nessun titolo>";"Gris1";"";"1";"43.5772";"1.47855";"1510654178000";"1510654178000"
96;"1";"<Nessun titolo>";"Guido van Helten";"";"1";"51.2315";"2.93735";"1510654178000";"1510654178000"
97;"1";"<Nessun titolo>";"Guido van Helten";"";"1";"53.8886";"27.542";"1510654178000";"1510654178000"
98;"1";"<Nessun titolo>";"Guido Van Helten";"";"1";"53.4844";"18.7511";"1510654178000";"1510654178000"
99;"1";"Homeless";"Herakut";"";"1";"48.868";"2.41245";"1510654178000";"1510654178000"
100;"1";"<Nessun titolo>";"Hilda Palafox";"";"1";"20.6281";"-87.0765";"1510654178000";"1510654178000"
101;"1";"<Nessun titolo>";"Hopare";"";"1";"44.8556";"-0.566975";"1510654178000";"1510654178000"
102;"1";"<Nessun titolo>";"Hopare";"";"1";"37.3258";"126.814";"1510654178000";"1510654178000"
103;"1";"<Nessun titolo>";"Hopare";"";"1";"43.1004";"5.88893";"1510654178000";"1510654178000"
104;"1";"Balancing Act";"How & Nosm";"";"1";"42.3334";"-83.0465";"1510654178000";"1510654178000"
105;"1";"<Nessun titolo>";"Hyuro";"";"1";"41.1664";"15.2601";"1510654178000";"1510654178000"
106;"1";"Una donna libera";"Hyuro";"";"1";"36.9077";"14.7139";"1510654178000";"1510654178000"
107;"1";"<Nessun titolo>";"Innerfields";"";"1";"50.4942";"12.133";"1510654178000";"1510654178000"
108;"1";"Heaven and Hell on Earth";"INO";"";"1";"-3.72342";"-38.5355";"1510654178000";"1510654178000"
109;"1";"In Search of Sunrise";"INO";"";"1";"38.9823";"1.29945";"1510654178000";"1510654178000"
110;"1";"Man with No Name";"INO";"";"1";"53.8789";"27.5472";"1510654178000";"1510654178000"
111;"1";"<Nessun titolo>";"Irony";"";"1";"54.602";"-5.93121";"1510654178000";"1510654178000"
112;"1";"<Nessun titolo>";"Irony";"";"1";"51.4404";"-2.61021";"1510654178000";"1510654178000"
113;"1";"<Nessun titolo>";"Jace";"";"1";"48.8267";"2.35222";"1510654178000";"1510654178000"
114;"1";"Rise";"James Bullough";"";"1";"50.4117";"30.5247";"1510654178000";"1510654178000"
115;"1";"<Nessun titolo>";"Jayn";"";"1";"53.2292";"10.4015";"1510654178000";"1510654178000"
116;"1";"<Nessun titolo>";"Jayn";"";"1";"53.2334";"10.3831";"1510654178000";"1510654178000"
117;"1";"The LaBrea Owl";"Jeff Soto";"";"1";"34.0736";"-118.344";"1510654178000";"1510654178000"
118;"1";"<Nessun titolo>";"Jeroo";"";"1";"45.0539";"5.05872";"1510654178000";"1510654178000"
119;"1";"<Nessun titolo>";"Jimmy C";"";"1";"51.5241";"-0.070535";"1510654178000";"1510654178000"
120;"1";"<Nessun titolo>";"JR";"";"1";"40.7182";"-74.0023";"1510654178000";"1510654178000"
121;"1";"<Nessun titolo>";"Julia Volchkova";"";"1";"5.35154";"100.243";"1510654178000";"1510654178000"
122;"1";"<Nessun titolo>";"SETH Globepainter";"";"1";"30.8883";"121.01";"1510654178000";"1510654178000"
123;"1";"<Nessun titolo>";"L7M";"";"1";"40.6228";"-74.0823";"1510654178000";"1510654178000"
124;"1";"<Nessun titolo>";"Lee Jeffries";"";"1";"48.8305";"2.37906";"1510654178000";"1510654178000"
125;"1";"Nausée";"Levalet";"";"0";"48.8677";"2.35562";"1510654178000";"1510654178000"
126;"1";"Rescue";"Levalet";"";"1";"48.5805";"7.74697";"1510654178000";"1510654178000"
127;"1";"Rise and Fall";"Li-Hill";"";"1";"52.4986";"13.3595";"1510654178000";"1510654178000"
128;"1";"The Impact of Discovery";"Li-Hill";"";"1";"50.4489";"30.4573";"1510654178000";"1510654178000"
129;"1";"Nitpicking";"Lonac";"";"1";"45.3313";"14.4526";"1510654178000";"1510654178000"
130;"1";"<Nessun titolo>";"Low Bros";"";"1";"50.9703";"4.68045";"1510654178000";"1510654178000"
131;"1";"<Nessun titolo>";"Ludo";"";"1";"48.874";"2.3596";"1510654178000";"1510654178000"
132;"1";"Flower Launcher";"Ludo";"";"1";"48.8641";"2.39327";"1510654178000";"1510654178000"
133;"1";"<Nessun titolo>";"MadC";"";"1";"31.6329";"-7.98945";"1510654178000";"1510654178000"
134;"1";"<Nessun titolo>";"MadC";"";"1";"48.7823";"2.40495";"1510654178000";"1510654178000"
135;"1";"<Nessun titolo>";"Mademoiselle Maurice";"";"1";"48.8179";"2.35799";"1510654178000";"1510654178000"
136;"1";"Birds";"Man o Matic";"";"1";"37.2552";"-6.95593";"1510654178000";"1510654178000"
137;"1";"Crumbling As we Climb";"Aaron Li-Hill";"";"1";"33.7752";"-118.187";"1510654178000";"1510654178000"
138;"1";"<Nessun titolo>";"Martin Ron";"";"1";"-34.6266";"-58.4082";"1510654178000";"1510654178000"
139;"1";"<Nessun titolo>";"Martin Whatson";"";"1";"58.9692";"5.76119";"1510654178000";"1510654178000"
140;"1";"Behind the Curtain";"Martin Whatson";"";"1";"25.802";"-80.2288";"1510654178000";"1510654178000"
141;"1";"Never give up";"Millo";"";"1";"-33.4403";"-70.6462";"1510654178000";"1510654178000"
142;"1";"<Nessun titolo>";"Millo";"";"1";"50.9227";"5.94947";"1510654178000";"1510654178000"
143;"1";"Suvannamaccha";"Millo";"";"1";"9.50305";"99.9058";"1510654178000";"1510654178000"
144;"1";"<Nessun titolo>";"Mr. Blob and Korvo";"";"1";"45.4376";"9.17107";"1510654178000";"1510654178000"
145;"1";"Keep on Listening Any Kind of Shape Talk with You";"Mr. THOMS";"";"1";"58.376";"26.7783";"1510654178000";"1510654178000"
146;"1";"<Nessun titolo>";"Mr.WOODLAND";"";"1";"48.3162";"11.9046";"1510654178000";"1510654178000"
147;"1";"<Nessun titolo>";"Mr Cenz";"";"1";"52.475";"-1.87521";"1510654178000";"1510654178000"
148;"1";"<Nessun titolo>";"Mue Bon";"";"1";"13.7381";"100.53";"1510654178000";"1510654178000"
149;"1";"<Nessun titolo>";"Muretz";"";"1";"51.5633";"-0.095869";"1510654178000";"1510654178000"
150;"1";"Samurai Likeism";"Nafir";"";"1";"52.4986";"13.3595";"1510654178000";"1510654178000"
151;"1";"Inhuman barriers";"NeverCrew";"";"1";"53.4807";"-2.23174";"1510654178000";"1510654178000"
152;"1";"<Nessun titolo>";"NeverCrew";"";"1";"28.5328";"77.2789";"1510654178000";"1510654178000"
153;"1";"Calais Jungle";"Nomad Clan";"";"1";"53.4817";"-2.2458";"1510654178000";"1510654178000"
154;"1";"Final Fleet";"Nomad Clan";"";"1";"53.8153";"-3.04829";"1510654178000";"1510654178000"
155;"1";"Translucent Medusa";"Nychos";"";"1";"57.0502";"9.90914";"1510654178000";"1510654178000"
156;"1";"Exploding Ronald’s head";"Nychos";"";"0";"40.5749";"-73.9811";"1510654178000";"1510654178000"
157;"1";"<Nessun titolo>";"Nychos";"";"1";"50.9711";"4.68187";"1510654178000";"1510654178000"
158;"1";"We are the Gemeos";"Jorit Agoch";"";"1";"40.72";"-73.9903";"1510654178000";"1510654178000"
159;"1";"Soho Dog";"Okuda";"";"1";"40.7218";"-73.9978";"1510654178000";"1510654178000"
160;"1";"<Nessun titolo>";"Okuda San Miguel";"";"1";"32.2439";"-8.52195";"1510654178000";"1510654178000"
161;"1";"Sweetest Sin";"ONUR & Wes21";"";"1";"52.5";"13.4083";"1510654178000";"1510654178000"
162;"1";"Efêmero";"Os Gemeos";"";"0";"45.5188";"9.21813";"1510654178000";"1510654178000"
163;"1";"<Nessun titolo>";"Os Gemeos";"";"1";"40.7243";"-73.9879";"1510654178000";"1510654178000"
164;"1";"<Nessun titolo>";"Adnate";"";"1";"51.5317";"-0.057538";"1510654178000";"1510654178000"
165;"1";"<Nessun titolo>";"Pablito Zago";"";"1";"43.942";"4.80569";"1510654178000";"1510654178000"
166;"1";"<Nessun titolo>";"Pablito Zago";"";"1";"43.953";"4.82058";"1510654178000";"1510654178000"
167;"1";"<Nessun titolo>";"Pantónio";"";"0";"50.4583";"30.4021";"1510654178000";"1510654178000"
168;"1";"Nelu";"Pastel";"";"1";"59.9243";"10.7983";"1510654178000";"1510654178000"
169;"1";"<Nessun titolo>";"Pastel";"";"1";"-34.5863";"-58.3736";"1510654178000";"1510654178000"
170;"1";"Camouflage (Tribute to René Magritte)";"Pejac";"";"0";"45.3337";"14.4562";"1510654178000";"1510654178000"
171;"1";"Mother’s Artists";"Pejac";"";"0";"31.9054";"36.5809";"1510654178000";"1510654178000"
172;"1";"Rotation";"Pejac";"";"1";"31.9612";"35.9129";"1510654178000";"1510654178000"
173;"1";"<Nessun titolo>";"Phlegm";"";"1";"52.4768";"-1.885";"1510654178000";"1510654178000"
174;"1";"Time To Scream And Shout";"Phlegm and Mum";"";"1";"64.1495";"-21.9468";"1510654178000";"1510654178000"
175;"1";"<Nessun titolo>";"Phlegm";"";"1";"30.3289";"-81.6593";"1510654178000";"1510654178000"
176;"1";"<Nessun titolo>";"Pixel Pancho";"";"1";"40.7048";"-73.9235";"1510654178000";"1510654178000"
177;"1";"One Wall";"Pixel Pancho";"";"1";"52.576";"13.2713";"1510654178000";"1510654178000"
178;"1";"Reminiscence";"Remed";"";"1";"34.0513";"-118.241";"1510654178000";"1510654178000"
179;"1";"<Nessun titolo>";"Remi Rough";"";"1";"31.634";"-8.01091";"1510654178000";"1510654178000"
180;"1";"<Nessun titolo>";"Rocket01";"";"1";"53.4844";"-2.21446";"1510654178000";"1510654178000"
181;"1";"<Nessun titolo>";"RONE";"";"1";"36.1444";"-86.7155";"1510654178000";"1510654178000"
182;"1";"Emma of Göteburg";"Rone";"";"0";"57.6543";"11.9122";"1510654178000";"1510654178000"
183;"1";"Sailor Story";"Rustam QBic";"";"1";"33.6793";"-116.175";"1510654178000";"1510654178000"
184;"1";"<Nessun titolo>";"Sabek";"";"1";"67.2832";"14.3822";"1510654178000";"1510654178000"
185;"1";"American Women";"Said Dokins";"";"1";"33.6793";"-116.175";"1510654178000";"1510654178000"
186;"1";"<Nessun titolo>";"Sainer";"";"1";"49.5022";"8.47054";"1510654178000";"1510654178000"
187;"1";"Philos & Adelphos";"Saner";"";"1";"39.9624";"-75.1344";"1510654178000";"1510654178000"
188;"1";"<Nessun titolo>";"Sasha Korban";"";"1";"50.5261";"30.5169";"1510654178000";"1510654178000"
189;"1";"Huli";"Hula";"";"1";"-37.644";"176.188";"1510654178000";"1510654178000"
190;"1";"<Nessun titolo>";"Sean Yoro aka Hula";"";"1";"26.7059";"-80.0467";"1510654178000";"1510654178000"
191;"1";"<Nessun titolo>";"Sebas Velasco and Xabier XTRM";"";"1";"43.0747";"-2.20569";"1510654178000";"1510654178000"
192;"1";"<Nessun titolo>";"Sebas Velasco";"";"1";"51.2214";"24.7334";"1510654178000";"1510654178000"
193;"1";"Blue in green";"Sepe and Chazme";"";"1";"47.447";"19.1694";"1510654178000";"1510654178000"
194;"1";"Dream Big";"Seth";"";"1";"39.9841";"116.496";"1510654178000";"1510654178000"
195;"1";"Antipodes";"Seth Globepainter";"";"1";"-43.5408";"172.654";"1510654178000";"1510654178000"
196;"1";"<Nessun titolo>";"Seth";"";"1";"-8.66213";"115.135";"1510654178000";"1510654178000"
197;"1";"My Mountain";"Seth";"";"1";"22.9847";"114.02";"1510654178000";"1510654178000"
198;"1";"<Nessun titolo>";"SHOK-1";"";"1";"51.522";"-0.068788";"1510654178000";"1510654178000"
199;"1";"<Nessun titolo>";"SmugOne";"";"1";"52.2616";"-7.11333";"1510654178000";"1510654178000"
200;"1";"The artist and his muse";"Sokar Uno";"";"1";"53.55";"9.95986";"1510654178000";"1510654178000"
201;"1";"<Nessun titolo>";"Strøk";"";"0";"48.832";"2.34446";"1510654178000";"1510654178000"
202;"1";"<Nessun titolo>";"Suso33";"";"1";"43.2544";"-2.9285";"1510654178000";"1510654178000"
203;"1";"<Nessun titolo>";"TARM";"";"1";"-22.9114";"-43.2153";"1510654178000";"1510654178000"
204;"1";"To The Desert";"Tellas";"";"1";"-31.9978";"115.887";"1510654178000";"1510654178000"
205;"1";"Under the City";"Tellas";"";"1";"39.2292";"9.09741";"1510654178000";"1510654178000"
206;"1";"Fog";"Tellas";"";"1";"53.3797";"-1.47667";"1510654178000";"1510654178000"
207;"1";"<Nessun titolo>";"Tellas";"";"1";"51.5236";"-0.078481";"1510654178000";"1510654178000"
208;"1";"Ma?ana, 100 toni";"Alberonero";"";"1";"39.4813";"-0.3505";"1510654178000";"1510654178000"
209;"1";"Two Of One Kind";"Telmo Miel and Pariz One";"";"1";"38.7695";"-9.18972";"1510654178000";"1510654178000"
210;"1";"Half Way There";"Telmo Miel";"";"1";"43.3004";"13.7148";"1510654178000";"1510654178000"
211;"1";"When I Grow Up";"Telmo Miel";"";"1";"59.7381";"10.2047";"1510654178000";"1510654178000"
212;"1";"<Nessun titolo>";"The Weird";"";"1";"49.1096";"18.2317";"1510654178000";"1510654178000"
213;"1";"<Nessun titolo>";"Violant";"";"1";"40.199";"-8.39483";"1510654178000";"1510654178000"
214;"1";"What if I fall? But imagine, what if you fly?";"WD aka Wild Drawing";"";"1";"37.9769";"23.7904";"1510654178000";"1510654178000"
215;"1";"Knowledge speaks, wisdom listens";"WD aka Wild Drawing";"";"1";"37.9843";"23.7177";"1510654178000";"1510654178000"
216;"1";"<Nessun titolo>";"WD aka Wild Drawing";"";"1";"35.9017";"14.5127";"1510654178000";"1510654178000"
217;"1";"<Nessun titolo>";"WD aka Wild Drawing";"";"1";"37.9792";"23.7355";"1510654178000";"1510654178000"
218;"1";"Prosperity";"WD aka Wild Drawing";"";"1";"65.7369";"24.5635";"1510654178000";"1510654178000"
219;"1";"Wake me up when September ends";"WD aka Wild Drawing";"";"1";"60.1709";"25.0116";"1510654178000";"1510654178000"
220;"1";"<Nessun titolo>";"Wes21 & Onur";"";"1";"25.8027";"-80.2001";"1510654178000";"1510654178000"
221;"1";"<Nessun titolo>";"Wild Welva";"";"1";"37.2708";"-6.92408";"1510654178000";"1510654178000"
222;"1";"<Nessun titolo>";"YASH";"";"1";"59.311";"18.0624";"1510654178000";"1510654178000"
223;"1";"Where Trees Don’t Grow";"YASH";"";"0";"57.7265";"11.897";"1510654178000";"1510654178000"
224;"1";"Jack The Ripper";"Zabou";"";"1";"51.5159";"-0.075668";"1510654178000";"1510654178000"
225;"1";"Stone Quarry";"Zest";"";"1";"47.1533";"4.88692";"1510654178000";"1510654178000"
226;"40";"Half To";"Rustam QBic";"";"1";"21.7119";"-6.489";"1551195362000";"1551195730000"
227;"4";"After Reflexion";"YASH";"";"1";"-18.681";"135.6343";"1551195363000";"1551195526000"
228;"34";".PRIMA. cultures";"Sasha Korban";"";"1";"45.2699";"-66.3246";"1551195363000";"1551195393000"
229;"76";"Scream Dismaland";"Guido van Helten";"";"1";"51.8733";"-112.5823";"1551195363000";"1551195802000"
230;"92";"Huli Incognito";"BIK ISMO";"";"1";"47.2852";"114.8234";"1551195363000";"1551195386000"
231;"19";"Artists Totoro";"1010";"";"1";"29.9117";"-9.821";"1551195363000";"1551195484000"
232;"17";"American breeding";"BLU";"";"1";"-54.9079";"-66.6461";"1551195363000";"1551195638000"
233;"64";"Rain Nausée";"Sebas Velasco";"";"1";"48.6661";"-102.3771";"1551195363000";"1551195757000"
234;"83";"toni Kokesh";"Jorit Agoch";"";"1";"3.8423";"22.3432";"1551195363000";"1551195719000"
235;"37";"Imperishable My";"Martin Whatson";"";"1";"-31.5103";"-65.5074";"1551195363000";"1551195573000"
236;"91";"Way Antipodes";"Pablito Zago";"";"1";"26.6597";"3.2014";"1551195363000";"1551195528000"
237;"38";"Likeism Europe";"Dourone";"";"1";"14.5873";"4.3273";"1551195363000";"1551195653000"
238;"85";"Meanwhile One";"Pejac";"";"1";"39.9442";"62.0552";"1551195363000";"1551195798000"
239;"25";"White One";"Nychos";"";"1";"29.6737";"-82.7486";"1551195363000";"1551195533000"
240;"3";"if The";"Anet Ronen";"";"1";"45.985";"-106.3946";"1551195363000";"1551195483000"
241;"15";"Ma?ana, Blind";"Daniel Padure";"";"1";"45.8392";"92.3901";"1551195363000";"1551195581000"
242;"58";"Rise Water";"ONUR & Wes21";"";"1";"44.9799";"100.3556";"1551195363000";"1551195691000"
243;"99";"Nausée Streetoceros";"Sasha Korban";"";"1";"-17.9805";"137.6481";"1551195363000";"1551195824000"
244;"73";"Efêmero small";"SeaCreative";"";"1";"-15.5449";"22.4972";"1551195363000";"1551195550000"
245;"41";"Nausée Sin";"SETH Globepainter";"";"1";"6.7412";"-6.5227";"1551195363000";"1551195715000"
246;"59";"Risveglio Sin";"Rustam QBic";"";"1";"42.3543";"129.2068";"1551195363000";"1551195412000"
247;"49";"The Wings";"David MEGGS Hooke";"";"1";"-4.0088";"-76.5456";"1551195363000";"1551195397000"
248;"22";"Past Kokesh";"Evoca1";"";"1";"33.9946";"87.596";"1551195363000";"1551195599000"
249;"87";"For head";"Cbloxx & AYLO of Nomad Clan";"";"1";"27.6444";"82.8174";"1551195363000";"1551195428000"
250;"95";"Philos Risveglio";"Os Gemeos";"";"1";"20.1905";"32.3024";"1551195363000";"1551195840000"
251;"63";"Ripper I";"Pejac";"";"1";"7.678";"122.7791";"1551195363000";"1551195449000"
252;"80";"The to";"Deih";"";"1";"42.4524";"111.019";"1551195363000";"1551195636000"
253;"76";"and the";"Fintan Magee";"";"1";"8.1392";"-6.724";"1551195363000";"1551195427000"
254;"36";"Balancing Where";"Fintan Magee";"";"1";"-30.3037";"141.5915";"1551195363000";"1551195609000"
255;"46";"when in";"Telmo Miel";"";"1";"34.8492";"98.0856";"1551195363000";"1551195610000"
256;"78";"Jungle Translucent";"Bifido";"";"1";"-9.1526";"148.3337";"1551195363000";"1551195594000"
257;"85";"When Huli";"ONUR & Wes21";"";"1";"47.6062";"43.6538";"1551195363000";"1551195722000"
258;"86";"Rescue Incognito";"Apolo Torres";"";"1";"19.9382";"21.9887";"1551195363000";"1551195754000"
259;"64";"Blind Sailor";"Dulk";"";"1";"-17.699";"140.4289";"1551195363000";"1551195634000"
260;"55";"Discovery of";"BIK ISMO";"";"1";"29.2259";"36.2501";"1551195363000";"1551195726000"
261;"6";"Big Gemeos";"Deih";"";"1";"38.1805";"-108.1565";"1551195363000";"1551195610000"
262;"31";"Rest Rotation";"INO";"";"1";"53.5282";"156.7179";"1551195363000";"1551195706000"
263;"82";"Likeism Insomnia";"Dulk";"";"1";"44.8091";"54.4595";"1551195363000";"1551195786000"
264;"82";"visionary Ziggy";"Ella & Pitr";"";"1";"24.8136";"121.4171";"1551195363000";"1551195547000"
265;"35";"My Blue";"Martin Ron";"";"1";"35.1558";"-98.1713";"1551195363000";"1551195571000"
266;"100";"the The";"Sepe and Chazme";"";"1";"0.3803";"101.3192";"1551195363000";"1551195456000"
267;"38";"to Huli";"Martin Whatson";"";"1";"-14.1586";"-44.7526";"1551195363000";"1551195419000"
268;"59";"Nitpicking Suvannamaccha";"Sainer";"";"1";"-25.5247";"114.4873";"1551195363000";"1551195387000"
269;"63";"Equality Impact";"Dulk";"";"1";"33.9034";"3.3569";"1551195363000";"1551195404000"
270;"89";"Sailor Nausée";"Millo";"";"1";"-43.9482";"-69.7933";"1551195363000";"1551195813000"
271;"57";"Reminiscence My";"WD aka Wild Drawing";"";"1";"18.9682";"81.4818";"1551195363000";"1551195504000"
272;"90";"pistola Nausée";"MadC";"";"1";"21.7415";"-14.7336";"1551195363000";"1551195827000"
273;"93";"And Medusa";"Case MaClaim";"";"1";"22.7595";"9.9925";"1551195363000";"1551195452000"
274;"22";"Reminiscence Efêmero";"Ludo";"";"1";"31.7118";"102.9221";"1551195363000";"1551195754000"
275;"18";"Prosperity Story";"Fin DAC";"";"1";"43.2452";"16.6796";"1551195363000";"1551195594000"
276;"82";"Rotation MOUF";"Saner";"";"1";"20.0866";"-2.0225";"1551195363000";"1551195547000"
277;"56";"are and";"Millo";"";"1";"-2.9521";"-68.3576";"1551195363000";"1551195492000"
278;"90";"Catch MOUF";"Brusk";"";"1";"25.8921";"100.4504";"1551195363000";"1551195456000"
279;"84";"Birds Streetoceros";"Zest";"";"1";"17.497";"8.2435";"1551195363000";"1551195439000"
280;"72";"Suvannamaccha Don’t";"Dotmasters";"";"1";"10.6958";"13.835";"1551195363000";"1551195823000"
281;"28";"Integration Cruel";"Aryz";"";"1";"51.2158";"-118.0791";"1551195363000";"1551195386000"
282;"13";"The the";"Dzia Krank";"";"1";"-31.5912";"125.5934";"1551195363000";"1551195413000"
283;"48";"Any visionary";"Tellas";"";"1";"23.9247";"3.732";"1551195363000";"1551195680000"
284;"7";"Madonna Il";"Guido Van Helten";"";"1";"-28.7573";"-64.4762";"1551195363000";"1551195753000"
285;"13";"Kokesh &";"Pejac";"";"1";"51.8213";"127.3107";"1551195363000";"1551195790000"
286;"16";"Flower Soho";"Airborne Mark";"";"1";"4.323";"24.3654";"1551195363000";"1551195667000"
287;"64";"and Sin";"Okuda";"";"1";"48.4507";"85.456";"1551195363000";"1551195693000"
288;"15";"The Half";"Nomad Clan";"";"1";"51.3952";"-81.7574";"1551195363000";"1551195767000"
289;"58";"Listening Shout";"Alexis Diaz and Borondo";"";"1";"20.4337";"33.3915";"1551195363000";"1551195562000"
290;"76";"Fog Prosperity";"Millo";"";"1";"48.121";"-96.6505";"1551195363000";"1551195702000"
291;"63";"Rotation Birds";"Bisser";"";"1";"17.7591";"37.447";"1551195363000";"1551195404000"
292;"18";"Curtain of";"Dzia Krank";"";"1";"50.8789";"-83.4811";"1551195363000";"1551195819000"
293;"58";"City Insomnia";"Sepe and Chazme";"";"1";"31.532";"88.4944";"1551195363000";"1551195698000"
294;"61";"Arctic Grow";"SETH Globepainter";"";"1";"25.9538";"30.2716";"1551195363000";"1551195451000"
295;"18";"The &";"Guido Van Helten";"";"1";"23.7399";"-104.2548";"1551195363000";"1551195590000"
296;"18";"Men Adelphos";"Li-Hill";"";"1";"30.764";"-104.3197";"1551195363000";"1551195623000"
297;"33";"Any Launcher";"Daniel Eime";"";"1";"36.1303";"1.9863";"1551195363000";"1551195847000"
298;"63";"White The";"Sebas Velasco";"";"1";"32.9824";"84.1902";"1551195363000";"1551195652000"
299;"14";"Taaniko Camouflage";"Daniel Padure";"";"1";"32.4978";"-96.8829";"1551195363000";"1551195781000"
300;"45";"Imperishable In";"ONUR & Wes21";"";"1";"38.233";"-86.6791";"1551195363000";"1551195527000"
301;"8";"American Antipodes";"Levalet";"";"1";"34.8872";"91.7352";"1551195363000";"1551195594000"
302;"66";"of Nausée";"WD aka Wild Drawing";"";"1";"-9.4516";"37.7468";"1551195363000";"1551195536000"
303;"29";"Mother’s international";"JAZ";"";"1";"22.792";"-7.1542";"1551195363000";"1551195488000"
304;"71";"Meanwhile Homeless";"Greg Mike";"";"1";"44.7891";"-84.9668";"1551195363000";"1551195817000"
305;"9";"The Big";"WD aka Wild Drawing";"";"1";"19.048";"-72.3658";"1551195363000";"1551195429000"
306;"58";"Creeping Golden";"Os Gemeos";"";"1";"21.5203";"111.1672";"1551195363000";"1551195605000"
307;"37";"Rest speaks,";"Bosoletti";"";"1";"49.2152";"40.742";"1551195363000";"1551195407000"
308;"29";"Cecil to";"Martin Whatson";"";"1";"8.1757";"38.2305";"1551195363000";"1551195493000"
309;"84";"Clones Insomnia";"The Weird";"";"1";"51.2889";"33.2135";"1551195363000";"1551195485000"
310;"49";"Stone Efêmero";"2501";"";"1";"17.4233";"-10.2428";"1551195363000";"1551195776000"
311;"2";"Golden of";"Hopare";"";"1";"49.0963";"25.6545";"1551195363000";"1551195828000"
312;"60";"The Eagle";"2Alas";"";"1";"22.3476";"8.5805";"1551195363000";"1551195715000"
313;"68";"Fleet The";"Lonac";"";"1";"53.4725";"78.4512";"1551195363000";"1551195695000"
314;"27";"Eagle Neighbour";"Alberonero";"";"1";"21.4299";"-5.0614";"1551195363000";"1551195705000"
315;"3";"Geometria Incognito";"Mr Cenz";"";"1";"-24.3518";"140.5395";"1551195363000";"1551195664000"
316;"68";"Clones Insomnia";"Dzia Krank";"";"1";"-15.7212";"-59.4776";"1551195363000";"1551195742000"
317;"93";"Kokesh his";"Lee Jeffries";"";"1";"-16.9775";"11.735";"1551195363000";"1551195600000"
318;"60";"Stone Hell";"Wild Welva";"";"1";"46.5707";"-119.828";"1551195363000";"1551195471000"
319;"40";"Mountain Blind";"Sainer";"";"1";"-21.8202";"31.273";"1551195363000";"1551195792000"
320;"63";"Seeker Nausée";"Rone";"";"1";"34.582";"-95.3017";"1551195363000";"1551195555000"
321;"96";"to Fog";"TARM";"";"1";"23.0219";"58.4943";"1551195363000";"1551195717000"
322;"7";"Fleet Reflexion";"Millo";"";"1";"42.5316";"-79.2792";"1551195363000";"1551195421000"
323;"86";"are Rotation";"Ludo";"";"1";"8.1399";"23.5827";"1551195363000";"1551195722000"
324;"14";"Big Mother’s";"Remed";"";"1";"-11.5414";"-46.0139";"1551195363000";"1551195516000"
325;"68";"Arctic To";"Banksy";"";"1";"7.2768";"-2.5894";"1551195363000";"1551195571000"
326;"73";"Nausée Il";"Suso33";"";"1";"-34.6927";"-62.0922";"1551195363000";"1551195823000"
327;"35";"Risveglio of";"Levalet";"";"1";"-16.6328";"44.5594";"1551195363000";"1551195685000"
328;"29";"Fog Yorick’s";"Brusk";"";"1";"-13.0492";"-69.9037";"1551195363000";"1551195454000"
329;"85";"Search Just";"Jayn";"";"1";"1.1056";"-61.2741";"1551195363000";"1551195843000"
330;"65";"Antipodes Seeker";"Wild Welva";"";"1";"36.8917";"-94.0039";"1551195363000";"1551195688000"
331;"96";"Creeping Equality";"Etam Cru";"";"1";"-24.2423";"-70.4011";"1551195363000";"1551195397000"
332;"89";"Kokesh City";"Nychos";"";"1";"43.2565";"22.2426";"1551195363000";"1551195620000"
333;"43";"the Future";"Seth";"";"1";"22.5543";"-101.8856";"1551195363000";"1551195778000"
334;"54";"Evening wisdom";"Alexis Diaz and Borondo";"";"1";"30.8809";"117.3237";"1551195363000";"1551195820000"
335;"46";"Launcher Early";"Rocket01";"";"1";"-28.5894";"115.2113";"1551195363000";"1551195433000"
336;"84";"my There";"Jace";"";"1";"47.8496";"-104.5448";"1551195363000";"1551195853000"
337;"60";"Efêmero of";"Phlegm";"";"1";"25.1737";"115.6573";"1551195363000";"1551195442000"
338;"87";"I a";"Millo";"";"1";"37.087";"98.2524";"1551195363000";"1551195536000"
339;"87";"Camouflage Adelphos";"Fintan Magee";"";"1";"-20.2689";"-46.2739";"1551195363000";"1551195629000"
340;"84";"you Calais";"Levalet";"";"1";"46.6136";"-88.2762";"1551195363000";"1551195848000"
341;"52";"Risveglio That";"Mirco Marcacci";"";"1";"48.6239";"79.6954";"1551195363000";"1551195857000"
342;"100";"Rotation the";"Violant";"";"1";"-53.4939";"-68.4332";"1551195363000";"1551195685000"
343;"86";"Study Suvannamaccha";"Mr. THOMS";"";"1";"49.7104";"-103.5457";"1551195363000";"1551195744000"
344;"41";"Women skull";"Telmo Miel";"";"1";"25.745";"-102.0666";"1551195363000";"1551195524000"
345;"18";"Integration &";"Evoca1";"";"1";"34.7918";"-112.8472";"1551195363000";"1551195595000"
346;"34";"up Lion";"SmugOne";"";"1";"54.177";"-76.7342";"1551195363000";"1551195591000"
347;"22";"- Blue";"Case MaClaim";"";"1";"-18.2404";"35.7702";"1551195363000";"1551195856000"
348;"41";"to Owl";"Os Gemeos";"";"1";"48.7292";"10.5517";"1551195363000";"1551195826000"
349;"82";"international Efêmero";"Suso33";"";"1";"30.4624";"49.3702";"1551195363000";"1551195655000"
350;"66";"Shout Up";"Levalet";"";"1";"-34.4882";"118.7031";"1551195363000";"1551195400000"
351;"17";"Europe Homeless";"Eduardo Kobra";"";"1";"32.4017";"115.8554";"1551195363000";"1551195492000"
352;"82";"Rescue Equality";"Elementi Sotterranei";"";"1";"5.2941";"29.5956";"1551195363000";"1551195658000"
353;"56";"Inhuman Dream";"WD aka Wild Drawing";"";"1";"29.8084";"-102.5435";"1551195363000";"1551195740000"
354;"33";"Reminiscence the";"Mue Bon";"";"1";"-21.3877";"-55.7555";"1551195363000";"1551195488000"
355;"77";"Homeless Fleet";"Ella & Pitr";"";"1";"44.0596";"-85.3121";"1551195363000";"1551195845000"
356;"29";"The -";"WD aka Wild Drawing";"";"1";"19.9668";"22.6607";"1551195363000";"1551195542000"
357;"13";"Kokesh visionary";"Case MaClaim";"";"1";"37.9304";"128.8289";"1551195363000";"1551195705000"
358;"13";"The the";"Evoca1";"";"1";"-23.2145";"43.7427";"1551195363000";"1551195846000"
359;"4";"Insomnia Reminiscence";"Millo";"";"1";"37.6437";"63.3974";"1551195363000";"1551195502000"
360;"64";"Fall Rest";"WD aka Wild Drawing";"";"1";"17.0508";"73.7975";"1551195363000";"1551195706000"
361;"42";"CAT The";"Giulio Vespirini";"";"1";"0.5096";"23.2714";"1551195363000";"1551195500000"
362;"75";"Quarry Water";"Os Gemeos";"";"1";"-7.3461";"24.645";"1551195363000";"1551195391000"
363;"77";"of Flower";"Ella & Pitr";"";"1";"21.0107";"10.2072";"1551195363000";"1551195575000"
364;"78";"Dream Creeping";"How & Nosm";"";"1";"-29.7174";"149.7088";"1551195363000";"1551195673000"
365;"72";"One Fleet";"2Alas";"";"1";"28.9414";"25.184";"1551195363000";"1551195834000"
366;"51";"Integration imagine,";"Phlegm";"";"1";"14.4272";"-6.6967";"1551195363000";"1551195526000"
367;"87";"Blind Respect";"1010";"";"1";"-28.4063";"26.2105";"1551195363000";"1551195765000"
368;"81";"Incognito Ripper";"Anet Ronen";"";"1";"43.5661";"141.5825";"1551195363000";"1551195520000"
369;"17";"Antipodes Dismaland";"NeverCrew";"";"1";"48.921";"119.9582";"1551195363000";"1551195584000"
370;"8";"Europe Blind";"JR";"";"1";"37.3905";"-109.433";"1551195363000";"1551195438000"
371;"43";"Rise Integration";"TARM";"";"1";"-4.3046";"103.7276";"1551195363000";"1551195471000"
372;"53";"Time My";"Hopare";"";"1";"18.438";"-71.3495";"1551195363000";"1551195482000"
373;"16";"As Ronald’s";"Etam Cru";"";"1";"52.9995";"23.4962";"1551195363000";"1551195386000"
374;"31";"Guard Nelu";"Jayn";"";"1";"22.8441";"82.4781";"1551195363000";"1551195641000"
375;"87";"Rise to";"YASH";"";"1";"44.9129";"58.1103";"1551195363000";"1551195594000"
376;"89";"international last";"Martin Ron";"";"1";"20.6061";"48.9445";"1551195363000";"1551195655000"
377;"94";"And Sunrise";"DANK";"";"1";"20.7926";"29.3438";"1551195363000";"1551195853000"
378;"62";"Likeism Ziggy";"Borondo";"";"1";"33.9624";"-96.2492";"1551195363000";"1551195826000"
379;"49";"Reminiscence face";"Mademoiselle Maurice";"";"1";"1.915";"-74.8565";"1551195363000";"1551195767000"
380;"81";"Catch pond";"Fintan Magee";"";"1";"31.7001";"-95.2728";"1551195363000";"1551195458000"
381;"98";"Half Meanwhile";"Brusk";"";"1";"50.661";"43.4398";"1551195363000";"1551195729000"
382;"51";"Dismaland Antipodes";"Pejac";"";"1";"51.3413";"-58.8161";"1551195363000";"1551195778000"
383;"47";"pond Nitpicking";"Brusk";"";"1";"52.4858";"106.6778";"1551195363000";"1551195855000"
384;"48";"Insomnia Story";"Julia Volchkova";"";"1";"5.5648";"-9.1316";"1551195363000";"1551195540000"
385;"88";"Seasons Search";"Deih";"";"1";"7.2598";"43.4989";"1551195363000";"1551195784000"
386;"80";"Dismaland the";"SETH Globepainter";"";"1";"-1.3576";"26.49";"1551195363000";"1551195678000"
387;"18";"Dismaland The";"Dzia Krank";"";"1";"37.912";"138.1907";"1551195363000";"1551195632000"
388;"25";"Zattera Arctic";"Suso33";"";"1";"48.2421";"55.3916";"1551195363000";"1551195494000"
389;"72";"Wall Early";"YASH";"";"1";"52.0644";"-75.5021";"1551195363000";"1551195639000"
390;"86";"Adelphos Meanwhile";"DANK";"";"1";"15.8578";"-96.9235";"1551195363000";"1551195747000"
391;"10";"Homeless In";"Guido Van Helten";"";"1";"50.2395";"-97.1501";"1551195363000";"1551195493000"
392;"75";"what Sin";"Millo";"";"1";"33.053";"75.7388";"1551195363000";"1551195516000"
393;"6";"of Never";"Low Bros";"";"1";"3.0874";"45.2699";"1551195363000";"1551195831000"
394;"37";"Arctic Monument";"Innerfields";"";"1";"-18.7075";"-48.6557";"1551195363000";"1551195805000"
395;"18";"Under The";"Deih";"";"1";"47.9255";"30.9061";"1551195363000";"1551195804000"
396;"80";"Meanwhile Huli";"Innerfields";"";"1";"-0.0085";"30.0187";"1551195363000";"1551195560000"
397;"62";"Just No";"Pejac";"";"1";"0.7386";"23.8893";"1551195363000";"1551195822000"
398;"14";"Rise Final";"Irony";"";"1";"28.4085";"109.0064";"1551195363000";"1551195720000"
399;"69";"Exploding Suvannamaccha";"Okuda San Miguel";"";"1";"-27.7023";"20.4503";"1551195363000";"1551195721000"
400;"75";"and up";"Fintan Magee";"";"1";"-6.2974";"-71.3208";"1551195363000";"1551195467000"
401;"54";"Emma Light";"Herakut";"";"1";"1.0646";"24.4106";"1551195363000";"1551195854000"
402;"67";"Philos Geometria";"BIK ISMO";"";"1";"-48.4673";"-68.4644";"1551195363000";"1551195395000"
403;"65";"Quarry I";"Rone";"";"1";"43.9637";"72.053";"1551195363000";"1551195513000"
404;"40";"Water Big";"Ella & Pitr";"";"1";"49.9945";"-70.4709";"1551195363000";"1551195580000"
405;"74";"Curtain Antipodes";"Fintan Magee";"";"1";"48.468";"131.7866";"1551195363000";"1551195567000"
406;"21";"Exploding As";"Giulio Vespirini";"";"1";"10.313";"-7.7361";"1551195363000";"1551195840000"
407;"95";"Likeism barriers";"Jimmy C";"";"1";"21.5762";"57.2761";"1551195363000";"1551195406000"
408;"7";"Big Integration";"Said Dokins";"";"1";"3.122";"40.5323";"1551195363000";"1551195740000"
409;"99";"are Rotation";"Irony";"";"1";"18.4524";"49.9849";"1551195363000";"1551195491000"
410;"78";"Dismaland Seasons";"Dzia Krank";"";"1";"-24.0699";"-59.3403";"1551195363000";"1551195634000"
411;"62";"Ziggy Emma";"Farid Rueda";"";"1";"3.5636";"-76.8951";"1551195363000";"1551195667000"
412;"15";"of Ripper";"RONE";"";"1";"9.3428";"10.6565";"1551195363000";"1551195859000"
413;"4";"Where Insomnia";"Sebas Velasco";"";"1";"40.1183";"-86.3598";"1551195363000";"1551195588000"
414;"1";"Grow Balancing";"Etam Cru";"";"1";"3.6607";"-75.5533";"1551195363000";"1551195508000"
415;"39";"Water Up";"Irony";"";"1";"46.7969";"-102.7736";"1551195363000";"1551195644000"
416;"56";"Risveglio to";"Dulk";"";"1";"50.4796";"-110.099";"1551195363000";"1551195387000"
417;"79";"Relics Story";"How & Nosm";"";"1";"52.4038";"-75.9712";"1551195363000";"1551195709000"
418;"23";"For Risveglio";"Nomad Clan";"";"1";"51.1366";"-122.33";"1551195363000";"1551195435000"
419;"57";"Geometria Cecil";"Dzia Krank";"";"1";"23.1837";"105.6246";"1551195363000";"1551195725000"
420;"64";"of What";"Pixel Pancho";"";"1";"46.1457";"-104.0121";"1551195363000";"1551195757000"
421;"55";"Risveglio 4";"Dzia Krank";"";"1";"-7.2006";"-55.6241";"1551195363000";"1551195841000"
422;"15";"Homeless by";"Wild Welva";"";"1";"-42.3187";"-72.106";"1551195363000";"1551195764000"
423;"68";"Grow Name";"Ella & Pitr";"";"1";"35.7954";"84.7491";"1551195363000";"1551195789000"
424;"43";"Study Likeism";"SWAN";"";"1";"5.2485";"11.8209";"1551195363000";"1551195654000"
425;"86";"I Blind";"Anet Ronen";"";"1";"21.4808";"26.5925";"1551195363000";"1551195572000"
426;"73";"Rain Women";"Alexis Diaz";"";"1";"19.4948";"98.6446";"1551195363000";"1551195602000"
427;"94";"of artist";"Millo";"";"1";"20.3669";"-13.1749";"1551195363000";"1551195489000"
428;"56";"Trees The";"Case MaClaim";"";"1";"-5.0054";"-53.6289";"1551195363000";"1551195835000"
429;"84";"Prosperity Equality";"Hyuro";"";"1";"-4.4405";"138.4545";"1551195363000";"1551195707000"
430;"99";"Dog Harriet";"2Alas";"";"1";"28.8765";"10.3011";"1551195363000";"1551195487000"
431;"27";"Rest the";"SWAN";"";"1";"33.8001";"3.7419";"1551195363000";"1551195445000"
432;"4";"Relics Likeism";"Millo";"";"1";"34.6584";"96.6483";"1551195363000";"1551195472000"
433;"84";"dell'anima Time";"Gris1";"";"1";"42.361";"-121.9139";"1551195363000";"1551195478000"
434;"17";"Trees Sailor";"Fintan Magee";"";"1";"42.0953";"-90.1686";"1551195363000";"1551195508000"
435;"83";"butterfly Final";"Seth";"";"1";"-28.8849";"129.0779";"1551195363000";"1551195842000"
436;"19";"Dismaland Water";"Levalet";"";"1";"26.561";"100.4985";"1551195363000";"1551195510000"
437;"60";"Grow Knowledge";"Herakut";"";"1";"-13.4439";"33.79";"1551195363000";"1551195859000"
438;"98";"are in";"Hula";"";"1";"52.7578";"-102.8805";"1551195363000";"1551195700000"
439;"45";"barriers the";"Hopare";"";"1";"33.45";"117.2404";"1551195363000";"1551195552000"
440;"33";"green Suvannamaccha";"Daniel Eime";"";"1";"21.2092";"8.1087";"1551195363000";"1551195474000"
441;"1";"One White";"Tellas";"";"1";"-21.7878";"-60.78";"1551195363000";"1551195593000"
442;"41";"face But";"Elementi Sotterranei";"";"1";"48.3168";"125.1119";"1551195363000";"1551195855000"
443;"83";"Big Integration";"The Weird";"";"1";"53.9563";"21.4354";"1551195363000";"1551195428000"
444;"8";"Story After";"Etam Cru";"";"1";"20.5309";"101.071";"1551195363000";"1551195653000"
445;"13";"up Risveglio";"Banksy";"";"1";"-3.6921";"-49.5721";"1551195363000";"1551195517000"
446;"28";"Nitpicking Way";"Telmo Miel and Pariz One";"";"1";"49.9034";"35.797";"1551195363000";"1551195808000"
447;"73";"Gemeos Reminiscence";"Banksy";"";"1";"-20.279";"-64.2358";"1551195363000";"1551195583000"
448;"52";"Eagle Efêmero";"C215";"";"1";"27.1523";"70.7275";"1551195363000";"1551195582000"
449;"93";"Exploding I";"Pixel Pancho";"";"1";"-6.1983";"-79.2296";"1551195363000";"1551195845000"
450;"97";"visionary Madonna";"Dzia Krank";"";"1";"24.9325";"106.3474";"1551195363000";"1551195609000"
451;"68";"Il Exploding";"Corn79";"";"1";"34.6503";"6.0146";"1551195363000";"1551195461000"
452;"75";"Men Sweetest";"Alexandre Keto";"";"1";"31.0536";"-83.0863";"1551195363000";"1551195812000"
453;"22";"Monument Blue";"Seth Globepainter";"";"1";"52.3033";"112.0692";"1551195363000";"1551195602000"
454;"87";"When Artists";"Daniel Eime";"";"1";"25.3234";"74.9086";"1551195363000";"1551195834000"
455;"25";"Meanwhile Meanwhile";"Dulk";"";"1";"53.8795";"18.7671";"1551195363000";"1551195814000"
456;"51";"Save Wall";"Nychos";"";"1";"27.2101";"49.2538";"1551195363000";"1551195613000"
457;"36";"of Likeism";"James Bullough";"";"1";"39.8865";"34.0266";"1551195363000";"1551195766000"
458;"22";"in CAT";"AnimalitoLand";"";"1";"28.0308";"64.728";"1551195363000";"1551195781000"
459;"73";"To of";"Ludo";"";"1";"2.5912";"15.8764";"1551195363000";"1551195404000"
460;"37";"City Baxteri";"Conor Harrington";"";"1";"-12.5738";"-56.2259";"1551195363000";"1551195738000"
461;"13";"Scream Rest";"Rocket01";"";"1";"9.2212";"-63.3802";"1551195363000";"1551195672000"
462;"15";"last Zattera";"Nomad Clan";"";"1";"5.2068";"-77.1698";"1551195363000";"1551195643000"
463;"69";"Earth Suvannamaccha";"Sokar Uno";"";"1";"47.159";"30.8452";"1551195363000";"1551195524000"
464;"55";"Blind Risveglio";"Bordalo II";"";"1";"-32.6112";"135.9701";"1551195363000";"1551195466000"
465;"49";"Story wisdom";"Strøk";"";"1";"39.287";"-74.6213";"1551195363000";"1551195654000"
466;"74";"can Dismaland";"Jeroo";"";"1";"-6.9684";"107.2205";"1551195363000";"1551195613000"
467;"40";"Streetoceros Insomnia";"Hopare";"";"1";"-45.1627";"-66.6581";"1551195363000";"1551195790000"
468;"52";"Samurai -";"Pejac";"";"1";"37.2492";"74.2478";"1551195363000";"1551195785000"
469;"70";"Fog Final";"Artez and Nikola Mihajlovic";"";"1";"30.4487";"-81.785";"1551195363000";"1551195630000"
470;"78";".PRIMA. Of";"Bordalo II";"";"1";"46.5541";"99.4992";"1551195363000";"1551195558000"
471;"23";"In Rise";"Tellas";"";"1";"-26.7684";"146.5979";"1551195363000";"1551195447000"
472;"33";"Efêmero Homeless";"Os Gemeos";"";"1";"22.3413";"84.8016";"1551195363000";"1551195490000"
473;"79";"toni Mother’s";"Herakut";"";"1";"-12.434";"-49.6806";"1551195363000";"1551195763000"
474;"54";"Arctic I";"Nomad Clan";"";"1";"12.9242";"78.5141";"1551195363000";"1551195827000"
475;"21";"Reflexion Seasons";"Hopare";"";"1";"10.6092";"-6.7019";"1551195363000";"1551195708000"
476;"70";"Fall .PRIMA.";"Nomad Clan";"";"1";"54.8807";"49.7212";"1551195363000";"1551195805000"
477;"61";"Kokesh skull";"Sainer";"";"1";"24.8787";"93.0053";"1551195363000";"1551195488000"
478;"36";"Nausée Grow";"JR";"";"1";"-20.9189";"140.5362";"1551195363000";"1551195420000"
479;"3";"Rise Dismaland";"How & Nosm";"";"1";"-17.2351";"45.4548";"1551195363000";"1551195477000"
480;"22";"crawling Wake";"BIK ISMO";"";"1";"51.8186";"73.9541";"1551195363000";"1551195824000"
481;"92";"Nelu Final";"NeverCrew";"";"1";"-31.5224";"-68.5613";"1551195363000";"1551195714000"
482;"46";"Homeless Save";"WD aka Wild Drawing";"";"1";"13.4225";"0.4688";"1551195363000";"1551195708000"
483;"17";"head Smoke";"Christina Angelina";"";"1";"-31.2359";"134.1115";"1551195363000";"1551195393000"
484;"9";"The In";"Tellas";"";"1";"19.7101";"4.3336";"1551195363000";"1551195625000"
485;"29";"Fleet Stardust";"SETH Globepainter";"";"1";"-17.1406";"44.9218";"1551195363000";"1551195564000"
486;"14";"René Eagle";"Bifido";"";"1";"-1.2035";"15.5782";"1551195363000";"1551195481000"
487;"28";"Suvannamaccha Zattera";"WD aka Wild Drawing";"";"1";"-14.1058";"26.6649";"1551195363000";"1551195861000"
488;"52";"Ma?ana, Slippers";"BIK ISMO";"";"1";"54.9453";"-3.3347";"1551195363000";"1551195857000"
489;"29";"Mother’s Europe";"AweR";"";"1";"24.0867";"104.8322";"1551195363000";"1551195823000"
490;"77";"Owl Kind";"INO";"";"1";"50.6906";"-66.2843";"1551195363000";"1551195809000"
491;"77";"with Owl";"Pastel";"";"1";"5.6982";"5.2893";"1551195363000";"1551195678000"
492;"98";"All with";"Millo";"";"1";"35.5446";"68.6784";"1551195363000";"1551195768000"
493;"88";"René Cruel";"Fintan Magee";"";"1";"44.4612";"128.5039";"1551195363000";"1551195793000"
494;"88";"Act of";"Artez and Nikola Mihajlovic";"";"1";"40.6085";"60.7691";"1551195363000";"1551195465000"
495;"50";"Curtain Equality";"Farid Rueda";"";"1";"15.5451";"35.982";"1551195363000";"1551195591000"
496;"82";"Calais breeding";"Sainer";"";"1";"45.2711";"-117.266";"1551195363000";"1551195623000"
497;"31";"the Kokesh";"Pastel";"";"1";"1.2525";"-64.3596";"1551195363000";"1551195791000"
498;"46";"Sweetest Just";"Wes21 & Onur";"";"1";"53.5012";"91.2425";"1551195363000";"1551195640000"
499;"68";"Just Homage";"Dzia Krank";"";"1";"16.0866";"2.793";"1551195363000";"1551195692000"
500;"7";"Nelu Risveglio";"Os Gemeos";"";"1";"34.7547";"65.8165";"1551195363000";"1551195747000"
501;"71";"Rest libera";"Tellas";"";"1";"52.9707";"32.6542";"1551195363000";"1551195395000"
502;"64";"Camouflage Blind";"Banksy";"";"1";"-27.8785";"134.1248";"1551195363000";"1551195778000"
503;"55";"Risveglio Eagle";"Bordalo II";"";"1";"46.4317";"105.6197";"1551195363000";"1551195617000"
504;"61";"Earth Impact";"Os Gemeos";"";"1";"-8.8881";"-50.5133";"1551195363000";"1551195673000"
505;"71";"Antipodes Europe";"Sebas Velasco and Xabier XTRM";"";"1";"51.7793";"142.875";"1551195363000";"1551195556000"
506;"80";"American Climb";"Hula";"";"1";"-13.1121";"29.2038";"1551195363000";"1551195433000"
507;"44";"Una When";"Irony";"";"1";"-6.9778";"-36.9899";"1551195363000";"1551195537000"
508;"16";"Love Reminiscence";"Amok Island";"";"1";"10.6262";"41.7687";"1551195363000";"1551195527000"
509;"72";"Rise Big";"Dzia Krank";"";"1";"-22.8265";"-64.7372";"1551195363000";"1551195698000"
510;"81";"Final Blue";"Hopare";"";"1";"54.5378";"37.3515";"1551195363000";"1551195531000"
511;"15";"the The";"Dzia Krank";"";"1";"22.5184";"-1.8637";"1551195363000";"1551195822000"
512;"1";"Butterfly Fleet";"Dzia Krank";"";"1";"11.3846";"2.1778";"1551195363000";"1551195792000"
513;"57";"breeding Early";"Alex Senna";"";"1";"-44.1623";"-66.5308";"1551195363000";"1551195687000"
514;"91";"Ziggy To";"Millo";"";"1";"4.5833";"44.1776";"1551195363000";"1551195586000"
515;"55";"Name My";"YASH";"";"1";"26.1772";"92.5426";"1551195363000";"1551195850000"
516;"32";"when Trees";"Pantónio";"";"1";"-14.0995";"29.3139";"1551195363000";"1551195688000"
517;"86";"green Knowledge";"Nafir";"";"1";"1.0627";"19.609";"1551195363000";"1551195384000"
518;"19";"After Translucent";"Strøk";"";"1";"54.6726";"43.6134";"1551195363000";"1551195737000"
519;"98";"& Reflexion";"SeaCreative";"";"1";"10.9739";"-74.8759";"1551195363000";"1551195454000"
520;"26";"are Women";"Alex Senna";"";"1";"28.4681";"28.322";"1551195363000";"1551195566000"
521;"25";"the Tribute";"Irony";"";"1";"-33.2484";"-62.0415";"1551195363000";"1551195514000"
522;"47";".PRIMA. Desert";"Hyuro";"";"1";"47.3287";"58.7475";"1551195363000";"1551195448000"
523;"64";"Wings Prosperity";"Pejac";"";"1";"43.9215";"124.294";"1551195363000";"1551195723000"
524;"7";"Rise Rise";"Nomad Clan";"";"1";"20.2807";"41.6725";"1551195363000";"1551195853000"
525;"70";"Behind Artists";"Alberonero";"";"1";"53.7391";"158.4823";"1551195363000";"1551195455000"
526;"82";"crawling Shout";"Pablito Zago";"";"1";"52.4236";"25.6036";"1551195363000";"1551195391000"
527;"84";"Nitpicking Rescue";"NeverCrew";"";"1";"-11.3264";"38.9318";"1551195363000";"1551195743000"
528;"62";"Jungle Stone";"INO";"";"1";"-7.4788";"146.7383";"1551195363000";"1551195762000"
529;"2";"Madonna the";"INO";"";"1";"47.4946";"75.979";"1551195363000";"1551195760000"
530;"27";"Artists Taaniko";"Seth";"";"1";"-3.293";"136.2905";"1551195363000";"1551195820000"
531;"59";"green Emma";"Etam Cru";"";"1";"16.2478";"101.4251";"1551195363000";"1551195470000"
532;"6";"Fog Banksia";"Dzia Krank";"";"1";"44.0127";"-110.3881";"1551195363000";"1551195735000"
533;"5";"Calais Homeless";"Sokar Uno";"";"1";"29.3157";"-101.9739";"1551195363000";"1551195460000"
534;"25";"Women Taaniko";"Corn79";"";"1";"29.7775";"96.4808";"1551195363000";"1551195589000"
535;"14";"Homeless Mountain";"Artez and Nikola Mihajlovic";"";"1";"42.8297";"114.1817";"1551195363000";"1551195583000"
536;"33";"Wake One";"Cbloxx & AYLO of Nomad Clan";"";"1";"19.9047";"57.2608";"1551195363000";"1551195655000"
537;"40";"Big Mountain";"Fintan Magee";"";"1";"30.4943";"8.1153";"1551195363000";"1551195586000"
538;"7";"green Eagle";"David Walker";"";"1";"-32.5229";"148.4778";"1551195363000";"1551195800000"
539;"46";"The Meanwhile";"NeverCrew";"";"1";"9.4253";"-61.1396";"1551195363000";"1551195800000"
540;"22";"skull Europe";"Hyuro";"";"1";"-24.4183";"130.4518";"1551195363000";"1551195793000"
541;"57";"Rise toni";"MadC";"";"1";"32.0473";"-89.844";"1551195363000";"1551195826000"
542;"73";"American muse";"Said Dokins";"";"1";"-40.5384";"-69.8757";"1551195363000";"1551195572000"
543;"16";"Huli the";"Rustam QBic";"";"1";"42.6721";"-102.2813";"1551195363000";"1551195524000"
544;"80";"libera Dismaland";"Alexandre Keto";"";"1";"49.8437";"131.4775";"1551195363000";"1551195433000"
545;"39";"American Sweetest";"YASH";"";"1";"52.4836";"9.3522";"1551195363000";"1551195572000"
546;"72";"Incognito Fleet";"Low Bros";"";"1";"8.0576";"16.9156";"1551195363000";"1551195474000"
547;"89";"Fleet Antipodes";"INO";"";"1";"43.5714";"-79.7562";"1551195363000";"1551195548000"
548;"80";"Rise terrorism";"Nychos";"";"1";"-22.0464";"-51.4528";"1551195363000";"1551195414000"
549;"22";"Final to";"Low Bros";"";"1";"-22.3027";"-68.4606";"1551195363000";"1551195733000"
550;"9";"Nitpicking Meanwhile";"Julia Volchkova";"";"1";"12.5705";"-14.4864";"1551195363000";"1551195610000"
551;"46";"of head";"Bisser";"";"1";"45.1636";"-91.8703";"1551195363000";"1551195688000"
552;"85";"Clones Efêmero";"SmugOne";"";"1";"53.6966";"44.0523";"1551195363000";"1551195515000"
553;"83";"Huli Birds";"Telmo Miel";"";"1";"-13.9869";"136.6502";"1551195363000";"1551195503000"
554;"62";"Emma Adelphos";"Millo";"";"1";"29.6877";"92.1301";"1551195363000";"1551195581000"
555;"70";"The Il";"Agostino Iacurci";"";"1";"-7.3856";"-47.62";"1551195363000";"1551195741000"
556;"34";"and That";"Okuda San Miguel";"";"1";"8.1451";"45.4676";"1551195363000";"1551195454000"
557;"57";"Huli of";"WD aka Wild Drawing";"";"1";"33.0949";"-2.6979";"1551195363000";"1551195578000"
558;"35";"on Quarry";"Pablito Zago";"";"1";"51.0186";"-70.7015";"1551195363000";"1551195700000"
559;"46";"Blind LaBrea";"Etam Cru";"";"1";"4.7911";"28.591";"1551195363000";"1551195702000"
560;"58";"Prosperity Equality";"Aaron Li-Hill";"";"1";"51.7532";"35.2978";"1551195363000";"1551195744000"
561;"37";"Rescue The";"Agostino Iacurci";"";"1";"9.9739";"-13.9021";"1551195363000";"1551195452000"
562;"5";"Wall international";"Phlegm and Mum";"";"1";"-32.2396";"-58.195";"1551195363000";"1551195740000"
563;"70";"the Rain";"BEZT";"";"1";"42.4233";"130.3506";"1551195363000";"1551195447000"
564;"68";"Keep Rescue";"Eduardo Kobra";"";"1";"-14.7621";"-53.7077";"1551195363000";"1551195409000"
565;"63";"Nausée dell'anima";"NeverCrew";"";"1";"-16.3891";"23.0999";"1551195363000";"1551195859000"
566;"66";"Flower in";"Innerfields";"";"1";"41.1693";"124.2097";"1551195363000";"1551195729000"
567;"79";"Huli green";"INO";"";"1";"7.0396";"4.9966";"1551195363000";"1551195739000"
568;"40";"Philos Eagle";"Low Bros";"";"1";"51.0157";"69.2617";"1551195363000";"1551195829000"
569;"9";"As And";"Dzia Krank";"";"1";"49.2322";"-99.4929";"1551195363000";"1551195600000"
570;"57";"dell'anima Golden";"Pantónio";"";"1";"-16.9288";"16.403";"1551195363000";"1551195816000"
571;"68";"The Just";"Dzia Krank";"";"1";"26.4082";"-11.0392";"1551195363000";"1551195568000"
572;"42";"Ma?ana, Pointless";"Dzia Krank";"";"1";"35.774";"135.9431";"1551195363000";"1551195690000"
573;"6";"Rest Earth";"Mr.WOODLAND";"";"1";"20.3137";"44.5336";"1551195363000";"1551195657000"
574;"63";"Sin All";"Irony";"";"1";"33.294";"59.3525";"1551195363000";"1551195614000"
575;"1";"Risveglio up";"Dotmasters";"";"1";"47.0844";"34.5363";"1551195363000";"1551195448000"
576;"62";"Water Medusa";"Nomad Clan";"";"1";"17.6583";"-10.4791";"1551195363000";"1551195646000"
577;"15";"The Nelu";"MadC";"";"1";"52.5437";"99.8188";"1551195363000";"1551195543000"
578;"12";"donna City";"Sainer";"";"1";"-28.8861";"-63.4668";"1551195363000";"1551195534000"
579;"60";"Blind Fog";"Daniel Eime";"";"1";"-2.9608";"-42.3605";"1551195363000";"1551195429000"
580;"58";"One Meanwhile";"Li-Hill";"";"1";"-34.1264";"-57.9708";"1551195363000";"1551195714000"
581;"58";"Dismaland American";"Pastel";"";"1";"22.0633";"54.7239";"1551195363000";"1551195653000"
582;"79";"Homeless to";"Pantónio";"";"1";"26.7504";"87.6184";"1551195363000";"1551195717000"
583;"10";"Stardust Study";"Corn79";"";"1";"-27.2569";"120.3678";"1551195363000";"1551195679000"
584;"37";"Rescue //";"Mr. THOMS";"";"1";"-7.6484";"35.2747";"1551195363000";"1551195778000"
585;"2";"Fog Likeism";"TARM";"";"1";"8.1293";"3.8965";"1551195363000";"1551195581000"
586;"58";"Il After";"Deih";"";"1";"34.5397";"-95.4484";"1551195363000";"1551195862000"
587;"10";"Suvannamaccha Fleet";"Alexandre Keto";"";"1";"29.4452";"55.7054";"1551195363000";"1551195707000"
588;"8";"of MOUF";"Man o Matic";"";"1";"-25.1303";"46.0617";"1551195363000";"1551195851000"
589;"74";"Prosperity Ziggy";"Johannes Mundinger";"";"1";"21.9327";"106.3279";"1551195363000";"1551195576000"
590;"69";"and Clones";"Amok Island";"";"1";"13.167";"21.6214";"1551195363000";"1551195444000"
591;"52";"American Streetoceros";"Julia Volchkova";"";"1";"-19.4107";"46.2084";"1551195363000";"1551195477000"
592;"6";"Nitpicking Clones";"Cbloxx & AYLO of Nomad Clan";"";"1";"11.344";"28.9882";"1551195363000";"1551195617000"
593;"38";"Where Behind";"The Weird";"";"1";"7.0762";"-9.6289";"1551195363000";"1551195434000"
594;"58";"Clones Incognito";"Low Bros";"";"1";"38.4103";"113.4731";"1551195363000";"1551195598000"
595;"64";"Cecil Madonna";"Zest";"";"1";"-20.095";"47.5229";"1551195363000";"1551195421000"
596;"34";"René Doll";"Pastel";"";"1";"8.5341";"-3.8393";"1551195363000";"1551195855000"
597;"88";"Town Incognito";"Sean Yoro aka Hula";"";"1";"18.5223";"-97.2714";"1551195363000";"1551195803000"
598;"34";"Sunrise fish";"INO";"";"1";"-0.0463";"-63.0057";"1551195363000";"1551195437000"
599;"61";"Where libera";"ONUR & Wes21";"";"1";"54.1808";"31.2331";"1551195363000";"1551195726000"
600;"55";"Integration Rescue";"Greg Gossel";"";"1";"-2.2593";"-66.1712";"1551195363000";"1551195593000"
601;"21";"Clones Under";"Pejac";"";"1";"11.9253";"41.4471";"1551195363000";"1551195765000"
602;"48";"what Clones";"Low Bros";"";"1";"53.9175";"-115.8472";"1551195363000";"1551195664000"
603;"56";"and Mountain";"AnimalitoLand";"";"1";"54.5388";"33.794";"1551195363000";"1551195678000"
604;"46";"Risveglio Rest";"Banksy";"";"1";"51.3403";"93.3754";"1551195363000";"1551195609000"
605;"26";"Stone Nitpicking";"James Bullough";"";"1";"36.8366";"40.8674";"1551195363000";"1551195448000"
606;"59";"Il Efêmero";"Adnate";"";"1";"4.0556";"-76.1419";"1551195363000";"1551195475000"
607;"41";"Women Incognito";"SmugOne";"";"1";"31.8675";"54.9082";"1551195363000";"1551195598000"
608;"18";"Rise Streetoceros";"Hula";"";"1";"49.5961";"117.2514";"1551195363000";"1551195562000"
609;"52";"Birds listens";"Man o Matic";"";"1";"-9.8745";"-71.6331";"1551195363000";"1551195525000"
610;"32";"Mother’s Relics";"David Walker";"";"1";"23.874";"71.6018";"1551195363000";"1551195856000"
611;"5";"Reminiscence toni";"Case MaClaim";"";"1";"50.9646";"6.6527";"1551195363000";"1551195822000"
612;"20";"Creeping Nelu";"Millo";"";"1";"18.4282";"-11.1597";"1551195363000";"1551195829000"
613;"8";"Just fenicottero";"WD aka Wild Drawing";"";"1";"-3.7306";"-51.5888";"1551195363000";"1551195668000"
614;"13";"Inhuman But";"Pablito Zago";"";"1";"33.3692";"126.673";"1551195363000";"1551195488000"
615;"35";"Equality Desert";"Mr Cenz";"";"1";"26.9137";"104.1375";"1551195363000";"1551195844000"
616;"38";"Streetoceros Efêmero";"Dotmasters";"";"1";"16.5005";"25.3479";"1551195363000";"1551195389000"
617;"86";"Nelu MOUF";"Seth";"";"1";"-29.7975";"149.6654";"1551195363000";"1551195503000"
618;"93";"Prosperity Reminiscence";"Mr. THOMS";"";"1";"-14.7955";"-73.5291";"1551195363000";"1551195726000"
619;"73";"Madonna Equality";"Dzia Krank";"";"1";"12.8946";"80.0713";"1551195363000";"1551195607000"
620;"94";"The The";"Amok Island";"";"1";"54.3476";"29.2296";"1551195363000";"1551195750000"
621;"66";"Knowledge Una";"NeverCrew";"";"1";"19.6521";"30.769";"1551195363000";"1551195430000"
622;"20";"Half Europe";"Dzia Krank";"";"1";"-10.6109";"-66.5761";"1551195363000";"1551195620000"
623;"50";"Listening Water";"Nafir";"";"1";"14.6436";"12.1081";"1551195363000";"1551195452000"
624;"58";"CAT Streetoceros";"Bordalo II";"";"1";"47.3816";"28.8457";"1551195363000";"1551195588000"
625;"70";"listens Never";"Dzia Krank";"";"1";"-4.6009";"-62.861";"1551195363000";"1551195842000"
626;"61";"Sailor Huli";"Hyuro";"";"1";"-7.3824";"146.5704";"1551195363000";"1551195528000"
627;"40";"Baxteri wisdom";"Agostino Iacurci";"";"1";"3.1062";"30.7607";"1551195363000";"1551195652000"
628;"40";"Creeping Meanwhile";"Pastel";"";"1";"-33.1941";"20.2237";"1551195363000";"1551195522000"
629;"61";"donna Women";"Zabou";"";"1";"-14.9878";"-52.9592";"1551195363000";"1551195642000"
630;"51";"of visionary";"Dulk";"";"1";"31.2645";"36.388";"1551195363000";"1551195845000"
631;"50";"What Never";"Anet Ronen";"";"1";"-6.9895";"108.8935";"1551195363000";"1551195493000"
632;"13";"Huli in";"Nychos";"";"1";"-26.6733";"136.9721";"1551195363000";"1551195525000"
633;"77";"Totoro Risveglio";"Sean Yoro aka Hula";"";"1";"-19.6376";"-53.4741";"1551195363000";"1551195656000"
634;"34";"Save Prosperity";"Alexis Diaz";"";"1";"35.0228";"-103.222";"1551195363000";"1551195459000"
635;"53";"Tortoise Water";"Brusk";"";"1";"37.6535";"-91.1108";"1551195363000";"1551195605000"
636;"65";"Mother’s Clones";"Alexandre Keto";"";"1";"44.9543";"73.2595";"1551195363000";"1551195403000"
637;"37";"Equality Creeping";"1010";"";"1";"21.7782";"-16.5172";"1551195363000";"1551195648000"
638;"33";"For Prosperity";"Innerfields";"";"1";"16.2581";"74.0184";"1551195363000";"1551195837000"
639;"73";"To of";"Sepe and Chazme";"";"1";"22.2945";"-12.2676";"1551195363000";"1551195719000"
640;"44";"Insomnia Town";"Case MaClaim";"";"1";"8.4014";"42.946";"1551195363000";"1551195830000"
641;"3";"Water I";"Millo";"";"1";"-1.9243";"32.9345";"1551195363000";"1551195715000"
642;"53";"Harriet Dismaland";"Fin DAC, Edo Rath & Nol Art";"";"1";"35.8364";"103.5482";"1551195363000";"1551195569000"
643;"36";"American My";"RONE";"";"1";"23.8234";"-102.021";"1551195363000";"1551195417000"
644;"62";"The Magritte)";"MadC";"";"1";"40.7677";"104.5193";"1551195363000";"1551195523000"
645;"86";"pond Flower";"Jeroo";"";"1";"40.5459";"16.0008";"1551195363000";"1551195686000"
646;"12";"We in";"Zest";"";"1";"25.9222";"-11.7264";"1551195363000";"1551195472000"
647;"96";"100 cosmos";"Seth";"";"1";"9.1091";"14.0113";"1551195363000";"1551195847000"
648;"28";"To To";"Guido Van Helten";"";"1";"51.0679";"75.2223";"1551195363000";"1551195587000"
649;"98";"in on";"Eduardo Kobra";"";"1";"-34.8404";"147.812";"1551195363000";"1551195812000"
650;"74";"Story you";"Case MaClaim";"";"1";"27.8744";"95.8521";"1551195363000";"1551195827000"
651;"81";"Act Nausée";"Sebas Velasco and Xabier XTRM";"";"1";"20.0172";"23.8356";"1551195363000";"1551195582000"
652;"91";"Nausée Incognito";"Eduardo Kobra";"";"1";"-15.2839";"167.8225";"1551195363000";"1551195495000"
653;"31";"the Catch";"Greg Mike";"";"1";"41.4799";"-99.5668";"1551195363000";"1551195652000"
654;"94";"Emma Sailor";"Martin Ron";"";"1";"24.6129";"3.0093";"1551195363000";"1551195788000"
655;"24";"Behind -";"Jimmy C";"";"1";"44.4679";"-67.956";"1551195363000";"1551195596000"
656;"57";"Gemeos Women";"Banksy";"";"1";"16.2828";"14.2549";"1551195363000";"1551195816000"
657;"11";"Ma?ana, Evening";"Mr.WOODLAND";"";"1";"17.6767";"97.575";"1551195363000";"1551195660000"
658;"95";"Kind .PRIMA.";"Pantónio";"";"1";"19.3873";"81.012";"1551195363000";"1551195766000"
659;"71";"My René";"Evoca1";"";"1";"5.6554";"20.9632";"1551195363000";"1551195737000"
660;"94";"Baxteri muse";"Pantónio";"";"1";"-20.6847";"33.6972";"1551195363000";"1551195713000"
661;"96";"Homeless Taaniko";"BLU";"";"1";"32.6943";"-104.5995";"1551195363000";"1551195404000"
662;"31";"trapped Imperishable";"Bisser";"";"1";"37.6861";"22.561";"1551195363000";"1551195811000"
663;"36";"Rotation Prosperity";"Apolo Torres";"";"1";"54.0127";"-99.012";"1551195363000";"1551195603000"
664;"9";"Ronald’s My";"Nychos";"";"1";"30.8356";"-5.0969";"1551195363000";"1551195573000"
665;"29";"Eagle Women";"Pablito Zago";"";"1";"53.0844";"29.5622";"1551195363000";"1551195816000"
666;"98";"4 One";"Sepe and Chazme";"";"1";"16.0216";"120.8396";"1551195363000";"1551195781000"
667;"97";"Incognito give";"Pejac";"";"1";"33.356";"43.0384";"1551195363000";"1551195627000"
668;"13";"up Toy";"DANK";"";"1";"39.1591";"22.2524";"1551195364000";"1551195674000"
669;"80";"Fleet The";"Suso33";"";"1";"27.6137";"41.1222";"1551195364000";"1551195522000"
670;"8";"Zattera Love";"Tellas";"";"1";"21.137";"41.8655";"1551195364000";"1551195766000"
671;"14";"up Hell";"Greg Gossel";"";"1";"8.9193";"6.0705";"1551195364000";"1551195754000"
672;"7";"Efêmero Nelu";"Low Bros";"";"1";"37.3296";"-4.2947";"1551195364000";"1551195582000"
673;"7";"Rain Town";"Airborne Mark";"";"1";"21.7527";"92.1015";"1551195364000";"1551195484000"
674;"9";"of Suvannamaccha";"Irony";"";"1";"-15.6857";"49.4191";"1551195364000";"1551195566000"
675;"3";"Taaniko Zattera";"Deih";"";"1";"46.8269";"27.2351";"1551195364000";"1551195611000"
676;"72";"city green";"Martin Whatson";"";"1";"-2.264";"31.0122";"1551195364000";"1551195495000"
677;"96";"Trees Fleet";"Bifido";"";"1";"11.3549";"37.0058";"1551195364000";"1551195405000"
678;"98";"& Ziggy";"Muretz";"";"1";"-27.2981";"-55.3157";"1551195364000";"1551195750000"
679;"12";"Blind Prosperity";"ONUR & Wes21";"";"1";"-3.1909";"38.2732";"1551195364000";"1551195388000"
680;"89";"Blind Balancing";"Hopare";"";"1";"52.6244";"8.3986";"1551195364000";"1551195791000"
681;"48";"Il Birds";"Anet Ronen";"";"1";"22.7271";"-3.07";"1551195364000";"1551195643000"
682;"57";"Eagle Future";"Eversiempre";"";"1";"31.3238";"36.9532";"1551195364000";"1551195541000"
683;"48";"Pointless The";"Sebas Velasco and Xabier XTRM";"";"1";"40.2119";"43.3284";"1551195364000";"1551195735000"
684;"94";"Efêmero Reflexion";"NeverCrew";"";"1";"41.9799";"127.6306";"1551195364000";"1551195669000"
685;"46";"the Grow";"Daniel Eime";"";"1";"18.8467";"11.918";"1551195364000";"1551195545000"
686;"1";"Mountain Europe";"Dulk";"";"1";"-21.6202";"116.4585";"1551195364000";"1551195584000"
687;"66";"Huli Reminiscence";"Lonac";"";"1";"39.1881";"-83.1709";"1551195364000";"1551195451000"
688;"56";"Incognito Equality";"Nychos";"";"1";"13.6276";"-84.7844";"1551195364000";"1551195471000"
689;"99";"// butterfly";"Eduardo Kobra";"";"1";"-3.5373";"18.0128";"1551195364000";"1551195810000"
690;"83";"Tortoise Guard";"YASH";"";"1";"-15.6294";"132.1431";"1551195364000";"1551195452000"
691;"38";"Sailor Incognito";"2Alas";"";"1";"44.369";"116.7368";"1551195364000";"1551195723000"
692;"38";"Stardust Water";"Telmo Miel and Pariz One";"";"1";"-4.7179";"-54.5942";"1551195364000";"1551195771000"
693;"19";"Curtain Act";"Guido Van Helten";"";"1";"-10.0091";"-48.0663";"1551195364000";"1551195740000"
694;"88";"Cecil //";"Fintan Magee";"";"1";"-28.2179";"-52.599";"1551195364000";"1551195827000"
695;"54";"Una Prosperity";"Dzia Krank";"";"1";"18.1267";"3.1409";"1551195364000";"1551195556000"
696;"50";"Nausée &";"C215";"";"1";"-15.726";"-43.5216";"1551195364000";"1551195758000"
697;"41";"Taaniko the";"Dzia Krank";"";"1";"-27.5905";"22.1636";"1551195364000";"1551195493000"
698;"33";"I After";"INO";"";"1";"10.8616";"14.7023";"1551195364000";"1551195669000"
699;"21";"human Stardust";"Borondo";"";"1";"-29.1865";"-50.1582";"1551195364000";"1551195736000"
700;"95";"Climb Mother’s";"Dzia Krank";"";"1";"23.7629";"57.1796";"1551195364000";"1551195545000"
701;"28";"Blind Banksia";"Mirco Marcacci";"";"1";"13.9002";"-1.3887";"1551195364000";"1551195617000"
702;"93";"Light Meanwhile";"Phlegm";"";"1";"34.0964";"41.5809";"1551195364000";"1551195714000"
703;"47";"Clones .PRIMA.";"Violant";"";"1";"-8.4996";"-59.3897";"1551195364000";"1551195528000"
704;"58";"September And";"Mr. THOMS";"";"1";"20.6324";"40.2632";"1551195364000";"1551195775000"
705;"50";"me Imperishable";"Greg Gossel";"";"1";"-1.732";"15.5074";"1551195364000";"1551195763000"
706;"79";"Yorick’s Fog";"BLU";"";"1";"33.8508";"101.7735";"1551195364000";"1551195492000"
707;"19";"and Reminiscence";"Millo";"";"1";"12.0177";"-8.2416";"1551195364000";"1551195738000"
708;"48";"Fleet Stages";"Brusk";"";"1";"34.9242";"-115.5377";"1551195364000";"1551195752000"
709;"17";"Madonna .PRIMA.";"Levalet";"";"1";"40.629";"84.8636";"1551195364000";"1551195746000"
710;"15";"Rescue Harriet";"C215";"";"1";"44.8969";"38.6024";"1551195364000";"1551195733000"
711;"86";"Efêmero Owl";"SETH Globepainter";"";"1";"4.3189";"8.9962";"1551195364000";"1551195389000"
712;"6";"Fleet Birds";"Cbloxx & AYLO of Nomad Clan";"";"1";"43.7689";"19.586";"1551195364000";"1551195429000"
713;"85";"Evening &";"Airborne Mark";"";"1";"11.597";"16.9918";"1551195364000";"1551195493000"
714;"1";"American Europe";"Martin Whatson";"";"1";"39.204";"62.5409";"1551195364000";"1551195590000"
715;"82";"Don’t Huli";"WD aka Wild Drawing";"";"1";"38.035";"120.7523";"1551195364000";"1551195843000"
716;"98";"I We";"Daniel Eime";"";"1";"38.1992";"90.6913";"1551195364000";"1551195503000"
717;"95";"with Huli";"Zabou";"";"1";"32.7278";"55.0721";"1551195364000";"1551195618000"
718;"87";"Prosperity The";"Mr. THOMS";"";"1";"32.4029";"14.2263";"1551195364000";"1551195811000"
719;"79";"Suvannamaccha Two";"Fintan Magee";"";"1";"8.1661";"34.4841";"1551195364000";"1551195711000"
720;"35";"Dream what";"Anet Ronen";"";"1";"9.7466";"-69.5489";"1551195364000";"1551195808000"
721;"17";"Göteburg One";"Banksy";"";"1";"17.6495";"46.5937";"1551195364000";"1551195412000"
722;"44";"I Arctic";"Anet Ronen";"";"1";"27.8137";"1.6447";"1551195364000";"1551195742000"
723;"58";"Man the";"Bosoletti";"";"1";"-18.0014";"-53.9228";"1551195364000";"1551195511000"
724;"60";"Yorick’s with";"Millo";"";"1";"10.506";"20.1131";"1551195364000";"1551195705000"
725;"76";"Reminiscence The";"Lonac";"";"1";"39.2059";"-79.3547";"1551195364000";"1551195650000"
726;"43";"Samurai As";"Brusk";"";"1";"-21.7805";"27.9604";"1551195364000";"1551195600000"
727;"60";"Europe Efêmero";"Jorit Agoch";"";"1";"31.4416";"-82.4835";"1551195364000";"1551195487000"
728;"48";"Rescue Eagle";"Irony";"";"1";"-37.5392";"-59.8077";"1551195364000";"1551195510000"
729;"43";"American Women";"SHOK-1";"";"1";"-19.6913";"-42.6268";"1551195364000";"1551195782000"
730;"85";"Meanwhile MOUF";"Agostino Iacurci";"";"1";"-32.4988";"149.7524";"1551195364000";"1551195496000"
731;"30";"the of";"INO";"";"1";"44.5302";"101.3316";"1551195364000";"1551195452000"
732;"100";"Homage Big";"RONE";"";"1";"-33.3856";"20.9216";"1551195364000";"1551195640000"
733;"82";"To the";"Eduardo Kobra";"";"1";"-5.0971";"141.1804";"1551195364000";"1551195639000"
734;"28";"Equality cultures";"Sean Yoro aka Hula";"";"1";"-13.6418";"-75.8638";"1551195364000";"1551195718000"
735;"88";"Rain Exploding";"Deih";"";"1";"39.3393";"82.8202";"1551195364000";"1551195662000"
736;"99";"LaBrea Light";"Eversiempre";"";"1";"37.0513";"68.4421";"1551195364000";"1551195617000"
737;"42";"One of";"SeaCreative";"";"1";"38.3637";"-83.3366";"1551195364000";"1551195507000"
738;"56";"Rise Time";"Telmo Miel and Pariz One";"";"1";"21.5535";"55.8746";"1551195364000";"1551195767000"
739;"58";"Blind Impact";"Mr. Blob and Korvo";"";"1";"42.8361";"142.0433";"1551195364000";"1551195534000"
740;"52";"Risveglio Clones";"Telmo Miel and Pariz One";"";"1";"-10.6863";"-42.7536";"1551195364000";"1551195661000"
741;"64";"Toy and";"Tellas";"";"1";"45.3545";"-91.2892";"1551195364000";"1551195546000"
742;"68";"Incognito the";"Elementi Sotterranei";"";"1";"-4.9186";"-64.5316";"1551195364000";"1551195510000"
743;"53";"Geometria Arctic";"Hyuro";"";"1";"45.3641";"23.726";"1551195364000";"1551195634000"
744;"66";"head Where";"Pejac";"";"1";"-24.3849";"-58.2012";"1551195364000";"1551195735000"
745;"2";"Harriet Hell";"Pablito Zago";"";"1";"41.6976";"-101.1363";"1551195364000";"1551195673000"
746;"47";"of Sin";"Case MaClaim";"";"1";"7.7437";"13.5981";"1551195364000";"1551195840000"
747;"84";"Fog Blind";"Telmo Miel";"";"1";"14.4545";"34.3671";"1551195364000";"1551195436000"
748;"60";"barriers pair";"Martin Whatson";"";"1";"-24.5345";"18.1887";"1551195364000";"1551195396000"
749;"7";"Don’t Blind";"Dzia Krank";"";"1";"8.9886";"34.9671";"1551195364000";"1551195814000"
750;"93";"To Rise";"Wild Welva";"";"1";"46.3428";"75.3544";"1551195364000";"1551195406000"
751;"99";"Inhuman Scream";"Zabou";"";"1";"50.7848";"59.2509";"1551195364000";"1551195814000"
752;"81";"To Birds";"DANK";"";"1";"-14.937";"-147.9044";"1551195364000";"1551195468000"
753;"57";"Search skull";"TARM";"";"1";"4.1494";"-60.2396";"1551195364000";"1551195835000"
754;"4";"Antipodes Nelu";"Irony";"";"1";"6.3885";"31.5238";"1551195364000";"1551195544000"
755;"66";"Seeker Sweetest";"Seth";"";"1";"-27.0269";"-65.6766";"1551195364000";"1551195709000"
756;"69";"Medusa Big";"MadC";"";"1";"-27.2287";"-68.7093";"1551195364000";"1551195439000"
757;"32";"Streetoceros Calais";"Nychos";"";"1";"32.662";"95.0216";"1551195364000";"1551195511000"
758;"60";"Any of";"Etam Cru";"";"1";"-35.8543";"-64.1256";"1551195364000";"1551195841000"
759;"47";"Nitpicking Equality";"Fintan Magee";"";"1";"13.751";"35.1142";"1551195364000";"1551195736000"
760;"1";"what Quarry";"Millo";"";"1";"-18.0166";"45.9541";"1551195364000";"1551195526000"
761;"88";"One Save";"Remed";"";"1";"-11.1644";"-52.0722";"1551195364000";"1551195647000"
762;"69";"Never Rise";"Alexis Diaz and Borondo";"";"1";"38.033";"72.2605";"1551195364000";"1551195511000"
763;"12";"Fog Zattera";"WD aka Wild Drawing";"";"1";"30.6522";"39.9001";"1551195364000";"1551195401000"
764;"65";"Wall The";"Case MaClaim";"";"1";"26.7046";"39.5321";"1551195364000";"1551195529000"
765;"67";"Sweetest Eagle";"WD aka Wild Drawing";"";"1";"-24.0799";"140.7777";"1551195364000";"1551195639000"
766;"74";"Taaniko cultures";"Christina Angelina";"";"1";"28.7091";"60.0133";"1551195364000";"1551195711000"
767;"39";"Banksia Big";"NeverCrew";"";"1";"25.3512";"-101.7212";"1551195364000";"1551195608000"
768;"60";"Rise Equality";"Okuda San Miguel";"";"1";"16.0163";"-91.1077";"1551195364000";"1551195738000"
769;"54";"Streetoceros are";"Dzia Krank";"";"1";"43.4205";"143.1794";"1551195364000";"1551195622000"
770;"70";"What Neighbour";"Rocket01";"";"1";"34.4952";"57.5831";"1551195364000";"1551195666000"
771;"49";"Risveglio fall?";"Mr. Blob and Korvo";"";"1";"40.1262";"-0.5167";"1551195364000";"1551195538000"
772;"8";"Water Nelu";"Hilda Palafox";"";"1";"16.7893";"2.1487";"1551195364000";"1551195543000"
773;"92";"Talk own";"Pastel";"";"1";"25.4976";"94.5599";"1551195364000";"1551195551000"
774;"64";"Una Don’t";"Elementi Sotterranei";"";"1";"52.7471";"-124.7847";"1551195364000";"1551195657000"
775;"51";"Taaniko the";"Guido van Helten";"";"1";"3.6637";"114.0315";"1551195364000";"1551195691000"
776;"56";"Just Fog";"Martin Whatson";"";"1";"42.944";"72.2527";"1551195364000";"1551195540000"
777;"90";"Climb Fog";"Irony";"";"1";"-3.9493";"14.5107";"1551195364000";"1551195687000"
778;"18";"small in";"Fin DAC, Edo Rath & Nol Art";"";"1";"42.1466";"77.7298";"1551195364000";"1551195594000"
779;"21";"The Samurai";"Herakut";"";"1";"22.9131";"27.8336";"1551195364000";"1551195640000"
780;"7";"// Final";"Deih";"";"1";"25.0314";"-99.8117";"1551195364000";"1551195639000"
781;"30";"Rise Story";"Sokar Uno";"";"1";"-28.8789";"-57.5596";"1551195364000";"1551195737000"
782;"68";"his Rain";"How & Nosm";"";"1";"27.5416";"54.3049";"1551195364000";"1551195442000"
783;"95";"Sweetest Dismaland";"Cbloxx & AYLO of Nomad Clan";"";"1";"39.2592";"43.0191";"1551195364000";"1551195384000"
784;"74";"Nausée the";"2Alas";"";"1";"-16.8623";"-55.9732";"1551195364000";"1551195791000"
785;"68";"Day One";"Giulio Vespirini";"";"1";"20.8404";"100.579";"1551195364000";"1551195797000"
786;"42";"Shoe pistola";"INO";"";"1";"22.0777";"0.9698";"1551195364000";"1551195849000"
787;"4";"& Rise";"Hilda Palafox";"";"1";"-8.4017";"-45.5478";"1551195364000";"1551195583000"
788;"82";"Philos Incognito";"Mr.WOODLAND";"";"1";"21.2714";"26.8365";"1551195364000";"1551195649000"
789;"48";"CAT The";"Adnate";"";"1";"49.2465";"23.6667";"1551195364000";"1551195553000"
790;"35";"Rest of";"2Alas";"";"1";"54.1985";"-63.5752";"1551195364000";"1551195752000"
791;"41";"In In";"Deih";"";"1";"-25.6321";"-58.5478";"1551195364000";"1551195421000"
792;"80";"on Stardust";"Pastel";"";"1";"12.6784";"-8.3333";"1551195364000";"1551195395000"
793;"98";"Zattera And";"Sebas Velasco";"";"1";"6.4964";"39.9964";"1551195364000";"1551195581000"
794;"79";"Birds his";"WD aka Wild Drawing";"";"1";"3.6803";"25.1832";"1551195364000";"1551195744000"
795;"30";"Jack visionary";"BIK ISMO";"";"1";"31.129";"93.8871";"1551195364000";"1551195456000"
796;"53";"in Equality";"TARM";"";"1";"24.2969";"-4.551";"1551195364000";"1551195385000"
797;"44";"barriers Likeism";"INO";"";"1";"5.7828";"40.0544";"1551195364000";"1551195462000"
798;"30";"Relics Neighbour";"Martin Ron";"";"1";"39.5073";"-3.0317";"1551195364000";"1551195741000"
799;"66";"Translucent Risveglio";"Case MaClaim";"";"1";"38.6268";"-95.2065";"1551195364000";"1551195841000"
800;"40";"Yorick’s Risveglio";"Sebas Velasco";"";"1";"-12.0548";"32.5083";"1551195364000";"1551195824000"
801;"62";"Rise Love";"Hula";"";"1";"-37.4292";"-65.9482";"1551195364000";"1551195761000"
802;"90";"Banksia trapped";"Agostino Iacurci";"";"1";"35.9783";"111.0382";"1551195364000";"1551195695000"
803;"23";"Nelu Fog";"BLU";"";"1";"-54.7071";"-69.1793";"1551195364000";"1551195666000"
804;"29";"Respect Kokesh";"AweR";"";"1";"10.184";"22.1642";"1551195364000";"1551195612000"
805;"82";"Tortoise Reflexion";"1010";"";"1";"39.5924";"-102.9854";"1551195364000";"1551195681000"
806;"97";"the Behind";"Bifido";"";"1";"26.545";"-11.7853";"1551195364000";"1551195794000"
807;"19";"Up Taaniko";"Fin DAC, Edo Rath & Nol Art";"";"1";"30.2151";"29.9037";"1551195364000";"1551195524000"
808;"13";"Meanwhile Prosperity";"TARM";"";"1";"20.3545";"85.9041";"1551195364000";"1551195486000"
809;"95";"Doll Tribute";"Daniel Padure";"";"1";"9.5519";"49.4042";"1551195364000";"1551195694000"
810;"15";"Blind our";"Nomad Clan";"";"1";"42.0219";"-71.122";"1551195364000";"1551195638000"
811;"22";"Catch The";"WD aka Wild Drawing";"";"1";"-21.7944";"142.9403";"1551195364000";"1551195854000"
812;"56";"Fog The";"Case MaClaim";"";"1";"5.5857";"-69.1593";"1551195364000";"1551195635000"
813;"34";"Insomnia Final";"Banksy";"";"1";"30.0819";"-5.4537";"1551195364000";"1551195581000"
814;"54";"City fenicottero";"Alex Senna";"";"1";"45.8297";"10.6191";"1551195364000";"1551195804000"
815;"13";"Homeless Balancing";"Case MaClaim";"";"1";"44.2346";"131.3543";"1551195364000";"1551195417000"
816;"91";"Dismaland Stone";"Nomad Clan";"";"1";"-19.4053";"126.5198";"1551195364000";"1551195632000"
817;"97";"- American";"Sebas Velasco and Xabier XTRM";"";"1";"54.0612";"-103.9011";"1551195364000";"1551195589000"
818;"15";"& Rescue";"Hyuro";"";"1";"49.8871";"72.6202";"1551195364000";"1551195679000"
819;"19";"if Rain";"YASH";"";"1";"15.9547";"9.2688";"1551195364000";"1551195453000"
820;"80";"Zattera dell'anima";"Borondo";"";"1";"0.6187";"121.078";"1551195364000";"1551195568000"
821;"13";"Water Water";"Telmo Miel";"";"1";"20.0907";"30.6342";"1551195364000";"1551195534000"
822;"94";"speaks, Streetoceros";"Jayn";"";"1";"12.0796";"39.4807";"1551195364000";"1551195708000"
823;"19";"Antipodes MOUF";"Nychos";"";"1";"3.2303";"42.0416";"1551195364000";"1551195707000"
824;"82";"Madonna The";"Aaron Li-Hill";"";"1";"13.7746";"1.6308";"1551195364000";"1551195453000"
825;"4";"There Likeism";"Martin Whatson";"";"1";"23.8375";"-8.3256";"1551195364000";"1551195423000"
826;"81";"when give";"Martin Whatson";"";"1";"54.1036";"-119.5327";"1551195364000";"1551195385000"
827;"81";"only Madonna";"Pixel Pancho";"";"1";"5.5216";"115.7329";"1551195364000";"1551195797000"
828;"71";"Sailor Curtain";"Os Gemeos";"";"1";"54.6418";"35.4566";"1551195364000";"1551195689000"
829;"24";"Women Don’t";"Rone";"";"1";"-7.7098";"-59.7328";"1551195364000";"1551195561000"
830;"32";"Exploding Meanwhile";"Deih";"";"1";"49.8208";"-68.9548";"1551195364000";"1551195775000"
831;"6";"As the";"Hyuro";"";"1";"-10.5003";"24.0887";"1551195364000";"1551195581000"
832;"36";"Yorick’s Risveglio";"Banksy";"";"1";"-29.8141";"23.0859";"1551195364000";"1551195743000"
833;"72";"Relics green";"Martin Ron";"";"1";"11.2479";"8.1488";"1551195364000";"1551195599000"
834;"90";"My Dismaland";"Adnate";"";"1";"44.3042";"123.3417";"1551195364000";"1551195748000"
835;"15";"Sin Clones";"Saner";"";"1";"29.513";"-109.2581";"1551195364000";"1551195630000"
836;"4";"The Early";"Eversiempre";"";"1";"48.4702";"72.4085";"1551195364000";"1551195767000"
837;"86";"Respect Owl";"Remed";"";"1";"-4.1493";"121.7207";"1551195364000";"1551195750000"
838;"41";"libera Risveglio";"Greg Gossel";"";"1";"-9.9912";"-37.3006";"1551195364000";"1551195815000"
839;"5";"All Women";"Pejac";"";"1";"-12.5443";"-47.5371";"1551195364000";"1551195804000"
840;"34";"his Guard";"Tellas";"";"1";"-7.3593";"-73.3445";"1551195364000";"1551195700000"
841;"60";"when &";"Jeroo";"";"1";"-30.0317";"-63.0558";"1551195364000";"1551195569000"
842;"85";"pond Kokesh";"Elementi Sotterranei";"";"1";"22.236";"-16.6202";"1551195364000";"1551195402000"
843;"27";"Homage Fog";"DANK";"";"1";"25.2368";"-111.6108";"1551195364000";"1551195814000"
844;"72";"Rise Trees";"Mr. THOMS";"";"1";"44.6056";"125.5288";"1551195364000";"1551195432000"
845;"73";"Mountain Up";"Pastel";"";"1";"43.8408";"59.8974";"1551195364000";"1551195630000"
846;"39";"Harriet Huli";"2Alas";"";"1";"-7.854";"-39.4473";"1551195364000";"1551195774000"
847;"83";"City My";"SmugOne";"";"1";"19.8921";"99.5562";"1551195364000";"1551195854000"
848;"33";"Rest Golden";"SHOK-1";"";"1";"34.0858";"-79.7782";"1551195364000";"1551195726000"
849;"96";"butterfly The";"BLU";"";"1";"-15.1983";"25.9316";"1551195364000";"1551195472000"
850;"96";"donna Dismaland";"RONE";"";"1";"-22.075";"20.4127";"1551195364000";"1551195737000"
851;"79";"Streetoceros In";"How & Nosm";"";"1";"-38.5279";"-65.3987";"1551195364000";"1551195410000"
852;"1";"Save and";"Millo";"";"1";"-27.707";"148.9955";"1551195364000";"1551195633000"
853;"6";"perception Rest";"Nychos";"";"1";"-1.4169";"101.5498";"1551195364000";"1551195384000"
854;"16";"Nitpicking Slippers";"Martin Whatson";"";"1";"48.2538";"125.6882";"1551195364000";"1551195403000"
855;"46";"can Birds";"Sokar Uno";"";"1";"54.1573";"-94.7301";"1551195364000";"1551195770000"
856;"59";"Equality Risveglio";"Corn79";"";"1";"16.8065";"24.8081";"1551195364000";"1551195556000"
857;"4";"Just and";"James Bullough";"";"1";"38.954";"101.9229";"1551195364000";"1551195700000"
858;"23";"Clones Europe";"Fin DAC";"";"1";"-12.2074";"36.2208";"1551195364000";"1551195705000"
859;"57";"his with";"Dzia Krank";"";"1";"52.895";"-83.1291";"1551195364000";"1551195536000"
860;"48";"Launcher Desert";"Tellas";"";"1";"30.3962";"45.9481";"1551195364000";"1551195777000"
861;"74";"Blue Rise";"Case MaClaim";"";"1";"-25.1707";"-48.9162";"1551195364000";"1551195763000"
862;"4";"Balancing Suvannamaccha";"Airborne Mark";"";"1";"30.9367";"15.1511";"1551195364000";"1551195686000"
863;"14";"Name Integration";"Ludo";"";"1";"-2.9648";"27.4492";"1551195364000";"1551195488000"
864;"98";"humans Quarry";"Etam Cru";"";"1";"-41.7463";"-73.2132";"1551195364000";"1551195801000"
865;"44";"Homeless Stone";"Daniel Padure";"";"1";"14.4414";"35.7018";"1551195364000";"1551195716000"
866;"95";"Prosperity Geometria";"Jayn";"";"1";"1.2993";"-62.5954";"1551195364000";"1551195798000"
867;"92";"green pistola";"Guido van Helten";"";"1";"-24.0488";"44.801";"1551195364000";"1551195673000"
868;"88";"Translucent Inhuman";"Fintan Magee";"";"1";"-28.8262";"135.2187";"1551195364000";"1551195642000"
869;"39";"Madonna we";"Case MaClaim";"";"1";"26.9966";"86.7126";"1551195364000";"1551195538000"
870;"99";"Sailor To";"Herakut";"";"1";"32.5771";"6.4307";"1551195364000";"1551195513000"
871;"75";"Totoro When";"Okuda San Miguel";"";"1";"34.7022";"87.1039";"1551195364000";"1551195706000"
872;"65";"Sweetest Nitpicking";"Nomad Clan";"";"1";"-13.0689";"-55.488";"1551195364000";"1551195824000"
873;"93";"wisdom Rise";"Anet Ronen";"";"1";"28.3964";"-100.1382";"1551195364000";"1551195395000"
874;"79";"Incognito Insomnia";"Mr.WOODLAND";"";"1";"40.1174";"-1.7205";"1551195364000";"1551195465000"
875;"77";"and Big";"WD aka Wild Drawing";"";"1";"9.3492";"-64.3813";"1551195364000";"1551195699000"
876;"15";"Scream Yorick’s";"Said Dokins";"";"1";"0.5987";"-58.8032";"1551195364000";"1551195690000"
877;"71";"I of";"Cbloxx & AYLO of Nomad Clan";"";"1";"-8.0881";"-58.1395";"1551195364000";"1551195451000"
878;"1";"Eagle Act";"Tellas";"";"1";"-2.5591";"25.3131";"1551195364000";"1551195859000"
879;"2";"in Incognito";"Ella & Pitr";"";"1";"44.7785";"129.1914";"1551195364000";"1551195562000"
880;"39";"dell'anima listens";"Giulio Vespirini";"";"1";"30.7537";"-100.0424";"1551195364000";"1551195783000"
881;"3";"Jungle and";"Sepe and Chazme";"";"1";"-10.0458";"-77.3994";"1551195364000";"1551195519000"
882;"61";"fenicottero Dream";"Jayn";"";"1";"8.5064";"12.2569";"1551195364000";"1551195749000"
883;"87";"Europe Shape";"Jayn";"";"1";"-21.757";"-49.0512";"1551195364000";"1551195732000"
884;"45";"the The";"GLeo";"";"1";"19.1109";"82.9992";"1551195364000";"1551195589000"
885;"79";"Samurai Tribute";"Sebas Velasco and Xabier XTRM";"";"1";"24.6172";"42.3132";"1551195364000";"1551195711000"
886;"29";"visionary Jack";"Tellas";"";"1";"48.9914";"-57.6848";"1551195364000";"1551195502000"
887;"34";"Magritte) Eagle";"Zabou";"";"1";"24.2995";"-0.0694";"1551195364000";"1551195484000"
888;"8";"Balancing Don’t";"Dzia Krank";"";"1";"-26.8578";"114.8432";"1551195364000";"1551195413000"
889;"15";"Insomnia The";"INO";"";"1";"25.5588";"48.2089";"1551195364000";"1551195441000"
890;"71";"CAT Kokesh";"YASH";"";"1";"31.4193";"-103.6486";"1551195364000";"1551195435000"
891;"44";"Nelu Jack";"Alex Senna";"";"1";"12.1758";"-2.3104";"1551195364000";"1551195769000"
892;"11";"Homeless Big";"Muretz";"";"1";"-21.6601";"-54.2347";"1551195364000";"1551195757000"
893;"55";"Madonna Seeker";"Artez and Nikola Mihajlovic";"";"1";"34.7172";"-106.7371";"1551195364000";"1551195529000"
894;"16";"The Lost";"Dourone";"";"1";"2.9176";"-62.9594";"1551195364000";"1551195756000"
895;"61";"For Huli";"Daniel Eime";"";"1";"-16.2087";"18.5336";"1551195364000";"1551195809000"
896;"52";"Rest The";"MadC";"";"1";"-17.6168";"-43.6852";"1551195364000";"1551195389000"
897;"94";"The 4";"Zabou";"";"1";"-3.6102";"-42.0582";"1551195364000";"1551195458000"
898;"25";"Il For";"NeverCrew";"";"1";"-29.0733";"-60.8952";"1551195364000";"1551195605000"
899;"7";"100 Day";"Case MaClaim";"";"1";"18.4048";"10.8677";"1551195364000";"1551195809000"
900;"6";"Climb Relics";"Brusk";"";"1";"-24.7012";"146.3667";"1551195364000";"1551195478000"
901;"59";"Rest you";"Mr.WOODLAND";"";"1";"-12.2441";"-60.9179";"1551195364000";"1551195554000"
902;"39";"Sweetest Efêmero";"Seth";"";"1";"-5.1827";"-76.0735";"1551195364000";"1551195421000"
903;"38";"Sailor Zattera";"Julia Volchkova";"";"1";"10.3247";"1.0749";"1551195364000";"1551195814000"
904;"31";"Soho Suvannamaccha";"INO";"";"1";"21.3972";"-12.806";"1551195364000";"1551195622000"
905;"7";"Medusa Tribute";"Fin DAC";"";"1";"24.695";"108.4969";"1551195364000";"1551195834000"
906;"85";"Launcher skull";"Greg Mike";"";"1";"52.2038";"-113.3674";"1551195364000";"1551195816000"
907;"67";"Early in";"Eduardo Kobra";"";"1";"51.6227";"17.2084";"1551195364000";"1551195519000"
908;"40";"Act donna";"Pastel";"";"1";"38.9952";"-102.5873";"1551195364000";"1551195492000"
909;"18";"Homage Integration";"BLU";"";"1";"-3.8839";"30.6345";"1551195364000";"1551195781000"
910;"22";"Love Incognito";"Dourone";"";"1";"-17.756";"138.7603";"1551195364000";"1551195653000"
911;"57";"Rescue Wall";"Alexandre Keto";"";"1";"29.2607";"13.2191";"1551195364000";"1551195704000"
912;"83";"(Tribute and";"NeverCrew";"";"1";"53.4546";"-106.5982";"1551195364000";"1551195812000"
913;"17";"Seeker Dream";"Pejac";"";"1";"49.9915";"-121.5091";"1551195364000";"1551195515000"
914;"32";"Desert Ma?ana,";"Giulio Vespirini";"";"1";"-0.8106";"-67.2679";"1551195364000";"1551195468000"
915;"97";"Blue To";"Banksy";"";"1";"23.7461";"24.6225";"1551195364000";"1551195678000"
916;"100";"dell'anima breeding";"Lonac";"";"1";"-25.07";"139.8416";"1551195364000";"1551195507000"
917;"7";"Incognito to";"Pablito Zago";"";"1";"48.4513";"4.214";"1551195364000";"1551195628000"
918;"53";"Quarry Birds";"Banksy";"";"1";"32.8615";"37.7503";"1551195364000";"1551195423000"
919;"42";"Big the";"Martin Ron";"";"1";"47.7608";"85.3326";"1551195364000";"1551195398000"
920;"41";"Relics (Tribute";"Case MaClaim";"";"1";"9.8983";"-75.0433";"1551195364000";"1551195696000"
921;"100";"Town Nitpicking";"Dotmasters";"";"1";"5.2017";"-62.4133";"1551195364000";"1551195701000"
922;"72";"Streetoceros the";"Said Dokins";"";"1";"19.3901";"-96.6029";"1551195364000";"1551195702000"
923;"5";"Nitpicking Risveglio";"Seth";"";"1";"53.9207";"17.4421";"1551195364000";"1551195680000"
924;"35";".PRIMA. Future";"Pejac";"";"1";"-6.4597";"18.3682";"1551195364000";"1551195695000"
925;"76";"Half Samurai";"Mue Bon";"";"1";"-31.5686";"142.9116";"1551195364000";"1551195391000"
926;"29";"One Two";"Sebas Velasco";"";"1";"36.9345";"80.2329";"1551195364000";"1551195499000"
927;"68";"are Act";"Etam Cru";"";"1";"33.122";"41.5081";"1551195364000";"1551195620000"
928;"63";"Fall Birds";"Nychos";"";"1";"-10.5086";"-46.9946";"1551195364000";"1551195822000"
929;"53";"Jungle Rotation";"Rocket01";"";"1";"35.4275";"-79.9923";"1551195364000";"1551195621000"
930;"92";"face Discovery";"BEZT";"";"1";"23.052";"-104.2496";"1551195364000";"1551195430000"
931;"59";"muse wisdom";"Jeroo";"";"1";"16.6613";"43.4657";"1551195364000";"1551195447000"
932;"53";"Heaven Reminiscence";"Ludo";"";"1";"-21.8397";"-68.3259";"1551195364000";"1551195601000"
933;"95";"the .PRIMA.";"Above";"";"1";"-27.7794";"-58.6719";"1551195364000";"1551195666000"
934;"84";"Nitpicking Man";"Sokar Uno";"";"1";"5.8001";"7.4967";"1551195364000";"1551195458000"
935;"76";"Rotation Kokesh";"Aaron Li-Hill";"";"1";"46.5176";"119.3591";"1551195364000";"1551195534000"
936;"82";"Owl Stardust";"The Weird";"";"1";"46.0059";"47.0308";"1551195364000";"1551195452000"
937;"43";"Zattera of";"Sabek";"";"1";"20.3375";"35.4108";"1551195364000";"1551195653000"
938;"57";"For Likeism";"Alexis Diaz and Borondo";"";"1";"14.8365";"29.963";"1551195364000";"1551195819000"
939;"96";"That Zattera";"Case MaClaim";"";"1";"52.5875";"173.704";"1551195364000";"1551195461000"
940;"86";"Under Grow";"Mademoiselle Maurice";"";"1";"34.4413";"-98.255";"1551195364000";"1551195645000"
941;"93";"After Flower";"Pixel Pancho";"";"1";"16.7955";"75.2059";"1551195364000";"1551195704000"
942;"42";"Il Translucent";"Christina Angelina";"";"1";"45.2694";"71.7995";"1551195364000";"1551195840000"
943;"33";"Reminiscence Antipodes";"David Walker";"";"1";"1.6553";"-77.1347";"1551195364000";"1551195746000"
944;"59";"in Ginger";"Pantónio";"";"1";"-37.3576";"144.2965";"1551195364000";"1551195658000"
945;"89";"pistola donna";"Fintan Magee";"";"1";"50.4217";"96.6876";"1551195364000";"1551195677000"
946;"56";"Europe Mountain";"ONUR & Wes21";"";"1";"-32.3371";"-66.2952";"1551195364000";"1551195825000"
947;"12";"Medusa To";"MadC";"";"1";"35.5085";"82.0803";"1551195364000";"1551195531000"
948;"7";"Likeism One";"Tellas";"";"1";"-12.9581";"135.4811";"1551195364000";"1551195797000"
949;"14";"Cruel fenicottero";"Anet Ronen";"";"1";"-25.077";"29.2645";"1551195364000";"1551195507000"
950;"73";"Golden fly?";"Gola Hundun";"";"1";"26.8229";"44.7792";"1551195364000";"1551195600000"
951;"79";"Kokesh the";"Guido van Helten";"";"1";"6.3319";"-71.4151";"1551195364000";"1551195475000"
952;"90";"Streetoceros fall?";"Jimmy C";"";"1";"-5.6417";"-62.926";"1551195364000";"1551195596000"
953;"21";"Rescue Il";"Ella & Pitr";"";"1";"-22.0757";"-44.6131";"1551195364000";"1551195453000"
954;"82";"Medusa Meanwhile";"Seth";"";"1";"42.7873";"-106.1998";"1551195364000";"1551195436000"
955;"93";"human Blind";"Lonac";"";"1";"54.7127";"-118.1089";"1551195364000";"1551195730000"
956;"96";"Clones toni";"Jeff Soto";"";"1";"38.8851";"114.7747";"1551195364000";"1551195561000"
957;"65";"in The";"Dulk";"";"1";"5.9614";"16.4333";"1551195364000";"1551195562000"
958;"17";"Prosperity Future";"Martin Ron";"";"1";"-49.0739";"-71.8697";"1551195364000";"1551195823000"
959;"72";"Stone MOUF";"Wes21 & Onur";"";"1";"27.1913";"-112.5776";"1551195364000";"1551195661000"
960;"13";"Monument Birds";"Case MaClaim";"";"1";"-3.4231";"25.3292";"1551195364000";"1551195474000"
961;"1";"of Rescue";"Johannes Mundinger";"";"1";"27.9321";"85.653";"1551195364000";"1551195510000"
962;"28";"the Madonna";"Tellas";"";"1";"-30.0022";"-55.4918";"1551195364000";"1551195453000"
963;"77";"Stardust Ma?ana,";"James Bullough";"";"1";"46.0478";"129.3962";"1551195364000";"1551195811000"
964;"3";"Rotation and";"Innerfields";"";"1";"2.0794";"44.5156";"1551195364000";"1551195438000"
965;"50";"Fog Man";"Remed";"";"1";"-4.8112";"-58.5766";"1551195364000";"1551195721000"
966;"78";"I Nitpicking";"Nychos";"";"1";"50.0273";"59.6139";"1551195364000";"1551195719000"
967;"45";"skull Totoro";"Telmo Miel and Pariz One";"";"1";"47.0205";"127.8026";"1551195364000";"1551195576000"
968;"77";"Nitpicking Kokesh";"YASH";"";"1";"54.9153";"20.3026";"1551195364000";"1551195738000"
969;"78";"American Prosperity";"Li-Hill";"";"1";"30.3276";"114.897";"1551195364000";"1551195852000"
970;"75";"Seeker Doll";"Eversiempre";"";"1";"-16.877";"15.0647";"1551195364000";"1551195470000"
971;"94";"Nitpicking Suvannamaccha";"Sabek";"";"1";"-10.9613";"-57.426";"1551195364000";"1551195611000"
972;"65";"of Kokesh";"Nychos";"";"1";"42.5087";"-91.6094";"1551195364000";"1551195460000"
973;"66";"The American";"Daniel Padure";"";"1";"-23.4784";"-46.3819";"1551195364000";"1551195472000"
974;"28";"Emma Exploding";"WD aka Wild Drawing";"";"1";"17.7101";"35.1638";"1551195364000";"1551195740000"
975;"14";"in Antipodes";"Mr Cenz";"";"1";"-9.8937";"-76.2769";"1551195364000";"1551195458000"
976;"15";"fenicottero Blind";"Lonac";"";"1";"34.8494";"104.998";"1551195364000";"1551195650000"
977;"14";"Blind Europe";"Aryz";"";"1";"-2.9717";"-79.7694";"1551195364000";"1551195638000"
978;"45";"when Geometria";"Hula";"";"1";"14.6922";"-15.9854";"1551195364000";"1551195632000"
979;"92";"Love Guard";"Sean Yoro aka Hula";"";"1";"43.3326";"55.7868";"1551195364000";"1551195742000"
980;"69";"of White";"BIK ISMO";"";"1";"29.2442";"101.1034";"1551195364000";"1551195535000"
981;"12";"& Totoro";"Christina Angelina";"";"1";"-19.2055";"-63.3272";"1551195364000";"1551195722000"
982;"62";"Prosperity the";"Said Dokins";"";"1";"48.6331";"48.2091";"1551195364000";"1551195490000"
983;"95";"Yorick’s Geometria";"BLU";"";"1";"47.2809";"67.1594";"1551195364000";"1551195508000"
984;"93";"Fall Sweetest";"Fintan Magee";"";"1";"-14.1743";"-47.0917";"1551195364000";"1551195500000"
985;"61";"Madonna Water";"Guido Van Helten";"";"1";"-36.2563";"-59.3586";"1551195364000";"1551195590000"
986;"15";"Europe I";"Pixel Pancho";"";"1";"18.7666";"-0.0048";"1551195364000";"1551195738000"
987;"84";"Harriet And";"Ella & Pitr";"";"1";"26.2285";"-0.6757";"1551195364000";"1551195838000"
988;"26";"White Smoke";"Rustam QBic";"";"1";"54.3764";"-7.255";"1551195364000";"1551195637000"
989;"62";"Birds Study";"Dzia Krank";"";"1";"45.3192";"134.1943";"1551195364000";"1551195439000"
990;"50";"Mountain Dismaland";"Levalet";"";"1";"14.6273";"12.5753";"1551195364000";"1551195661000"
991;"62";"of Toy";"Dourone";"";"1";"-32.1308";"139.9578";"1551195364000";"1551195522000"
992;"98";"Grow LaBrea";"Borondo";"";"1";"52.1283";"4.5318";"1551195364000";"1551195546000"
993;"56";"My Dream";"Eduardo Kobra";"";"1";"10.4129";"-66.4889";"1551195364000";"1551195488000"
994;"57";"To .PRIMA.";"Tellas";"";"1";"2.3541";"13.3824";"1551195364000";"1551195820000"
995;"96";"Golden Prosperity";"Pantónio";"";"1";"-24.9357";"144.9177";"1551195364000";"1551195501000"
996;"83";"Incognito Time";"Dzia Krank";"";"1";"47.5087";"71.8464";"1551195364000";"1551195397000"
997;"30";"Mountain cultures";"Brusk";"";"1";"46.869";"84.2359";"1551195364000";"1551195590000"
998;"7";"the Streetoceros";"L7M";"";"1";"9.1353";"-71.949";"1551195364000";"1551195494000"
999;"86";"Hell and";"Hopare";"";"1";"20.776";"47.5461";"1551195364000";"1551195586000"
1000;"21";"I Sin";"Mr Cenz";"";"1";"-15.6859";"20.2175";"1551195364000";"1551195573000"
1001;"26";"Crumbling of";"WD aka Wild Drawing";"";"1";"-19.6029";"-58.2351";"1551195364000";"1551195400000"
1002;"14";"To Camouflage";"Sabek";"";"1";"50.5784";"66.4697";"1551195364000";"1551195724000"
1003;"2";"Nitpicking Rescue";"1010";"";"1";"53.3407";"78.8246";"1551195364000";"1551195580000"
1004;"73";"Rise Dream";"Dotmasters";"";"1";"40.8358";"-89.0933";"1551195364000";"1551195472000"
1005;"28";"Fog Ziggy";"MadC";"";"1";"-7.8615";"-75.4439";"1551195364000";"1551195825000"
1006;"90";"Nitpicking of";"INO";"";"1";"3.0119";"-75.4595";"1551195364000";"1551195768000"
1007;"26";"Slippers Suvannamaccha";"Phlegm";"";"1";"40.9963";"78.2518";"1551195364000";"1551195433000"
1008;"71";"Meanwhile White";"Above";"";"1";"43.796";"71.454";"1551195364000";"1551195781000"
1009;"74";"green Nelu";"Nafir";"";"1";"-32.4345";"148.696";"1551195364000";"1551195518000"
1010;"67";"Seeker humans";"Nafir";"";"1";"9.4871";"-68.0591";"1551195364000";"1551195735000"
1011;"70";"Monument Madonna";"YASH";"";"1";"-21.7798";"-67.1698";"1551195364000";"1551195393000"
1012;"29";"if Nausée";"Case MaClaim";"";"1";"44.3881";"44.8911";"1551195364000";"1551195559000"
1013;"61";"Rotation LaBrea";"Herakut";"";"1";"30.9935";"102.4884";"1551195364000";"1551195438000"
1014;"45";"To Discovery";"Pixel Pancho";"";"1";"27.2321";"102.5514";"1551195364000";"1551195576000"
1015;"89";"the Half";"Fintan Magee";"";"1";"33.1597";"-110.1508";"1551195364000";"1551195394000"
1016;"68";"we September";"Fintan Magee";"";"1";"44.3888";"88.2423";"1551195364000";"1551195478000"
1017;"91";"To Reminiscence";"WD aka Wild Drawing";"";"1";"29.728";"5.1115";"1551195364000";"1551195429000"
1018;"33";"Rest Stone";"Jeff Soto";"";"1";"43.4567";"0.5938";"1551195364000";"1551195661000"
1019;"16";"Seeker Crumbling";"Rustam QBic";"";"1";"50.9109";"-76.9778";"1551195364000";"1551195511000"
1020;"33";"Discovery Rotation";"JAZ";"";"1";"25.5604";"17.0825";"1551195364000";"1551195454000"
1021;"50";"city One";"Alex Senna";"";"1";"25.9347";"113.1166";"1551195364000";"1551195568000"
1022;"64";"Medusa Shout";"Eduardo Kobra";"";"1";"27.7441";"-104.0848";"1551195364000";"1551195400000"
1023;"35";"Artists No";"Irony";"";"1";"-15.8633";"130.2189";"1551195364000";"1551195393000"
1024;"78";"Imperishable to";"Eversiempre";"";"1";"-30.1075";"-52.94";"1551195364000";"1551195475000"
1025;"74";"Light Prosperity";"Gris1";"";"1";"-37.1672";"141.7397";"1551195364000";"1551195498000"
1026;"50";"One To";"How & Nosm";"";"1";"-19.3118";"15.8996";"1551195364000";"1551195661000"
